Ver. 2010.09,,Town,Lat. ,Long. ,Trees,Beech,Maples,Birches,Ashs,Hemlock,Basswood,Elms,Pines,Hickories,Spruces,Fir,Cedar,Oaks,Chestnut,Ironwoods,Poplars,Tamarack,Cherries,Chamae'is,Nyssa,Juglans ,Buttonwood,Liriodendron ,Magnolia,Other
NY,%,St Regis StL Canada line ,44.95,-74.71,116,29.31%,10.34%,4.31%,5.17%,16.38%,5.17%,3.45%,1.72%,0.86%,11.21%,1.72%,3.45%,3.45%,0.00%,0.00%,0.86%,2.59%,0.00%,0.00%,0.00%,0.00%,0.00%,0.00%,0.00%,0.00%
NY,%,Refugee Tract combi,44.85,-73.77,121,22.31%,9.09%,9.92%,4.13%,15.70%,0.83%,0.83%,0.00%,0.00%,25.62%,8.26%,0.83%,0.00%,0.00%,2.48%,0.00%,0.00%,0.00%,0.00%,0.00%,0.00%,0.00%,0.00%,0.00%,0.00%
NY,%,Dean's Patent (Chazy) ,44.8343,-73.4593,130,36.92%,18.46%,4.62%,9.23%,6.92%,4.62%,0.77%,0.00%,0.77%,1.54%,0.00%,3.08%,3.85%,0.00%,5.38%,3.08%,0.00%,0.77%,0.00%,0.00%,0.00%,0.00%,0.00%,0.00%,0.00%
NY,%,Madrid,44.82,-75.16,143,25.17%,16.08%,4.90%,11.19%,18.18%,2.80%,4.20%,4.90%,0.00%,0.70%,0.00%,4.90%,2.10%,0.00%,1.40%,1.40%,1.40%,0.70%,0.00%,0.00%,0.00%,0.00%,0.00%,0.00%,0.00%
NY,%,East 3 of 10 Towns ,44.77,-74.95,93,48.39%,21.51%,5.38%,2.15%,7.53%,0.00%,2.15%,1.08%,0.00%,6.45%,0.00%,5.38%,0.00%,0.00%,0.00%,0.00%,0.00%,0.00%,0.00%,0.00%,0.00%,0.00%,0.00%,0.00%,0.00%
NY,%,Macomb GL #1  NE edge & OMT #6,44.69,-74.27,158,28.48%,14.56%,6.33%,0.63%,3.80%,0.63%,0.00%,13.29%,0.00%,18.35%,7.59%,3.80%,0.00%,0.00%,0.00%,0.63%,1.27%,0.63%,0.00%,0.00%,0.00%,0.00%,0.00%,0.00%,0.00%
NY,%,OMT #9,44.63,-74.06,426,26.53%,6.10%,15.49%,0.70%,4.23%,0.00%,0.00%,0.23%,0.00%,37.79%,7.28%,1.41%,0.00%,0.00%,0.23%,0.00%,0.00%,0.00%,0.00%,0.00%,0.00%,0.00%,0.00%,0.00%,0.00%
NY,%,north GL#2,44.63,-74.72,68,51.47%,11.76%,8.82%,2.94%,10.29%,0.00%,2.94%,0.00%,0.00%,4.41%,0.00%,1.47%,1.47%,0.00%,1.47%,0.00%,2.94%,0.00%,0.00%,0.00%,0.00%,0.00%,0.00%,0.00%,0.00%
NY,%,Macomb GL1 #14&15,44.54,-74.38,89,26.97%,16.85%,10.11%,0.00%,3.37%,0.00%,0.00%,0.00%,0.00%,26.97%,10.11%,2.25%,0.00%,0.00%,0.00%,0.00%,3.37%,0.00%,0.00%,0.00%,0.00%,0.00%,0.00%,0.00%,0.00%
NY,%,Hague & Shore,44.48,-75.72,104,9.62%,10.58%,19.23%,6.73%,9.62%,1.92%,0.96%,17.31%,0.00%,0.00%,0.00%,3.85%,11.54%,0.00%,0.00%,6.73%,0.96%,0.00%,0.00%,0.00%,0.00%,0.00%,0.00%,0.00%,0.96%
NY,%,#10 OMT,44.4783,-74.0133,615,29.43%,7.15%,9.43%,0.00%,4.39%,0.00%,0.00%,0.98%,0.00%,32.68%,12.68%,0.98%,0.00%,0.00%,0.00%,0.00%,1.95%,0.33%,0.00%,0.00%,0.00%,0.00%,0.00%,0.00%,0.00%
NY,%,Dekalb & line interior GL #3,44.41,-75.49,136,25.74%,14.71%,8.82%,5.15%,14.71%,2.94%,1.47%,1.47%,0.00%,22.06%,0.00%,0.00%,0.74%,0.00%,0.74%,0.74%,0.00%,0.00%,0.00%,0.00%,0.74%,0.00%,0.00%,0.00%,0.00%
NY,%,Peru Bay Tract,44.4067,-73.4517,270,28.15%,16.67%,4.07%,1.48%,18.89%,1.85%,1.48%,12.96%,1.11%,7.04%,0.00%,2.22%,3.70%,0.00%,0.00%,0.00%,0.00%,0.00%,0.00%,0.00%,0.00%,0.00%,0.00%,0.00%,0.37%
NY,%,Jay & Whiteface,44.4,-73.875,93,24.73%,10.75%,4.30%,2.15%,3.23%,0.00%,0.00%,2.15%,0.00%,31.18%,11.83%,1.08%,1.08%,0.00%,3.23%,2.15%,0.00%,2.15%,0.00%,0.00%,0.00%,0.00%,0.00%,0.00%,0.00%
NY,%,Jay (NY) Tract E,44.3933,-73.74,102,21.57%,15.69%,3.92%,3.92%,0.98%,2.94%,1.96%,21.57%,0.00%,15.69%,0.00%,0.98%,5.88%,0.00%,1.96%,2.94%,0.00%,0.00%,0.00%,0.00%,0.00%,0.00%,0.00%,0.00%,0.00%
NY,%,OMT #11,44.34,-74.03,392,20.15%,12.76%,14.29%,0.26%,3.06%,0.26%,0.00%,1.02%,0.00%,26.53%,13.01%,2.55%,0.00%,0.00%,1.02%,1.02%,3.83%,0.26%,0.00%,0.00%,0.00%,0.00%,0.00%,0.00%,0.00%
NY,%,Henry's Survey,44.31,-73.65,426,30.52%,11.27%,15.73%,1.41%,7.04%,1.41%,0.23%,2.82%,0.00%,24.41%,1.88%,0.00%,1.88%,0.00%,0.70%,0.47%,0.00%,0.23%,0.00%,0.00%,0.00%,0.00%,0.00%,0.00%,0.00%
NY,%,Alexandria (Macomb#4),44.3017,-75.84333,266,31.20%,17.29%,6.39%,6.77%,15.04%,3.76%,2.26%,6.39%,0.00%,0.00%,0.00%,0.38%,4.14%,0.00%,4.89%,1.13%,0.38%,0.00%,0.00%,0.00%,0.00%,0.00%,0.00%,0.00%,0.00%
NY,%,Macomb GL1 #23 (Killarney),44.26,-74.34,72,30.56%,11.11%,13.89%,0.00%,18.06%,0.00%,0.00%,4.17%,0.00%,12.50%,0.00%,6.94%,0.00%,0.00%,0.00%,0.00%,2.78%,0.00%,0.00%,0.00%,0.00%,0.00%,0.00%,0.00%,0.00%
NY,%,Antwerp (Macomb # 4),44.234,-75.6145,161,45.96%,20.50%,6.83%,4.35%,9.32%,2.48%,3.73%,0.00%,0.00%,2.48%,0.00%,0.00%,0.62%,0.00%,0.62%,0.62%,2.48%,0.00%,0.00%,0.00%,0.00%,0.00%,0.00%,0.00%,0.00%
NY,%,Taylor & Kimball (Kelly Tract) Westport&Lewis,44.2241,-73.4494,66,30.30%,9.09%,3.03%,4.55%,27.27%,1.52%,1.52%,6.06%,0.00%,10.61%,0.00%,1.52%,3.03%,0.00%,0.00%,0.00%,0.00%,0.00%,0.00%,0.00%,0.00%,1.52%,0.00%,0.00%,0.00%
NY,%,Split Rock Tract,44.2217,-73.3883,62,20.97%,14.52%,0.00%,6.45%,24.19%,1.61%,0.00%,8.06%,0.00%,4.84%,0.00%,3.23%,14.52%,0.00%,1.61%,0.00%,0.00%,0.00%,0.00%,0.00%,0.00%,0.00%,0.00%,0.00%,0.00%
NY,%,OMT #1 E&W,44.22,-73.67,128,32.03%,14.06%,7.03%,1.56%,6.25%,1.56%,0.78%,0.00%,0.00%,21.88%,9.38%,0.00%,0.78%,0.00%,2.34%,1.56%,0.00%,0.78%,0.00%,0.00%,0.00%,0.00%,0.00%,0.00%,0.00%
NY,%,OMT #12S,44.18,-73.98,71,22.54%,11.27%,14.08%,0.00%,0.00%,0.00%,0.00%,0.00%,0.00%,23.94%,25.35%,2.82%,0.00%,0.00%,0.00%,0.00%,0.00%,0.00%,0.00%,0.00%,0.00%,0.00%,0.00%,0.00%,0.00%
NY,%,Roaring Brook Tract,44.17,-73.72,80,22.50%,0.00%,12.50%,2.50%,22.50%,2.50%,0.00%,1.25%,0.00%,26.25%,8.75%,0.00%,0.00%,0.00%,1.25%,0.00%,0.00%,0.00%,0.00%,0.00%,0.00%,0.00%,0.00%,0.00%,0.00%
NY,%,South of #2 along T&C,44.16,-74.88,165,33.94%,7.88%,8.48%,3.03%,6.06%,0.00%,0.00%,1.82%,0.00%,22.42%,4.24%,0.61%,0.00%,0.00%,0.00%,0.00%,10.91%,0.61%,0.00%,0.00%,0.00%,0.00%,0.00%,0.00%,0.00%
NY,%,Iron Ore Tract,44.15,-73.53,360,38.89%,11.67%,7.22%,1.39%,11.67%,1.94%,0.83%,3.89%,0.00%,16.39%,0.28%,1.39%,0.56%,0.00%,0.83%,1.94%,0.00%,1.11%,0.00%,0.00%,0.00%,0.00%,0.00%,0.00%,0.00%
NY,%,Lyme-Clayton-Carleton,44.15,-76.2038,267,20.97%,18.73%,1.87%,10.11%,4.12%,5.62%,2.62%,7.87%,1.87%,0.37%,0.00%,2.62%,11.61%,0.37%,7.12%,2.62%,0.75%,0.00%,0.00%,0.00%,0.00%,0.00%,0.00%,0.00%,0.75%
NY,%,Diana (Macomb #4 triangle) ,44.10467,-75.379,237,48.95%,11.39%,10.55%,1.69%,16.03%,0.42%,0.84%,0.42%,0.00%,8.02%,0.00%,0.84%,0.00%,0.00%,0.00%,0.00%,0.84%,0.00%,0.00%,0.00%,0.00%,0.00%,0.00%,0.00%,0.00%
NY,%,Philadelphia/Leray (Macomb #4),44.0992,-75.6862,156,44.87%,17.95%,1.92%,5.13%,10.26%,4.49%,3.21%,8.33%,0.00%,0.00%,0.00%,0.00%,0.64%,0.00%,1.92%,0.64%,0.00%,0.00%,0.00%,0.00%,0.00%,0.00%,0.00%,0.00%,0.64%
NY,%,North River Head Tract,44.0967,-73.675,166,34.94%,3.01%,10.84%,1.81%,24.70%,0.60%,0.00%,0.60%,0.00%,19.88%,0.60%,0.60%,0.60%,0.00%,0.60%,0.60%,0.00%,0.60%,0.00%,0.00%,0.00%,0.00%,0.00%,0.00%,0.00%
NY,%,Pamelia/Brownfield (Macomb #4),44.0904,-75.91,220,24.09%,33.18%,2.27%,10.91%,5.45%,5.91%,3.64%,4.55%,0.45%,0.00%,0.00%,0.00%,1.36%,0.00%,7.73%,0.45%,0.00%,0.00%,0.00%,0.00%,0.00%,0.00%,0.00%,0.00%,0.00%
NY,%,T&C #50,44.085,-74.3033,78,25.64%,10.26%,19.23%,0.00%,8.97%,0.00%,0.00%,1.28%,0.00%,25.64%,8.97%,0.00%,0.00%,0.00%,0.00%,0.00%,0.00%,0.00%,0.00%,0.00%,0.00%,0.00%,0.00%,0.00%,0.00%
NY,%,T&C #37,44.065,-74.72,128,25.78%,8.59%,3.91%,0.00%,3.91%,0.00%,0.00%,1.56%,0.00%,36.72%,16.41%,1.56%,0.00%,0.00%,0.00%,0.00%,1.56%,0.00%,0.00%,0.00%,0.00%,0.00%,0.00%,0.00%,0.00%
NY,%,T&C #23,44.0333,-74.57,248,23.39%,11.69%,10.89%,0.40%,4.44%,0.40%,0.00%,1.21%,0.00%,34.68%,9.68%,0.40%,0.00%,0.00%,0.00%,0.00%,2.82%,0.00%,0.00%,0.00%,0.00%,0.00%,0.00%,0.00%,0.00%
NY,%,T&C #43 & N/ #38,44.0317,-74.975,225,28.89%,4.44%,9.33%,0.00%,4.44%,0.00%,0.00%,0.44%,0.00%,43.56%,5.78%,0.00%,0.00%,0.00%,0.00%,0.00%,3.11%,0.00%,0.00%,0.00%,0.00%,0.00%,0.00%,0.00%,0.00%
NY,%,T 4 Black River  combi,43.97,-75.7,214,48.13%,22.43%,5.61%,5.61%,9.81%,3.74%,0.93%,0.00%,0.00%,1.40%,0.47%,0.00%,0.00%,0.00%,0.93%,0.00%,0.00%,0.00%,0.00%,0.00%,0.93%,0.00%,0.00%,0.00%,0.00%
NY,%,Paradox Tract,43.96,-73.68,454,30.84%,5.51%,9.25%,1.10%,29.74%,0.00%,0.44%,8.15%,0.00%,11.45%,0.66%,1.98%,0.22%,0.00%,0.22%,0.22%,0.00%,0.00%,0.00%,0.00%,0.22%,0.00%,0.00%,0.00%,0.00%
NY,%,T&C #27,43.95,-74.1667,115,24.35%,13.91%,15.65%,0.87%,1.74%,0.00%,0.00%,0.87%,0.00%,30.43%,9.57%,0.87%,0.00%,0.00%,0.00%,0.00%,0.87%,0.00%,0.00%,0.00%,0.00%,0.00%,0.00%,0.00%,0.87%
NY,%,T 3 Black River (Rutland) combi ,43.95,-75.79,496,37.70%,32.26%,3.02%,4.44%,2.82%,3.83%,3.63%,3.02%,0.00%,0.60%,0.00%,0.00%,3.43%,0.40%,4.84%,0.00%,0.00%,0.00%,0.00%,0.00%,0.00%,0.00%,0.00%,0.00%,0.00%
NY,%,T&C #42,43.9483,-74.905,141,19.86%,9.93%,15.60%,0.00%,4.26%,0.00%,0.00%,0.00%,0.00%,34.75%,12.06%,0.00%,0.00%,0.00%,0.00%,0.00%,3.55%,0.00%,0.00%,0.00%,0.00%,0.00%,0.00%,0.00%,0.00%
NY,%,T&C #39 ,43.94,-74.74,164,26.83%,4.88%,10.98%,0.61%,1.83%,0.00%,0.00%,0.00%,0.00%,41.46%,9.15%,0.00%,0.00%,0.00%,0.00%,0.00%,3.66%,0.00%,0.00%,0.00%,0.00%,0.00%,0.00%,0.00%,0.61%
NY,%,T 2 (Watertown),43.94,-75.92,67,32.84%,31.34%,4.48%,7.46%,1.49%,4.48%,7.46%,0.00%,1.49%,0.00%,0.00%,0.00%,0.00%,0.00%,7.46%,0.00%,0.00%,0.00%,0.00%,0.00%,0.00%,0.00%,1.49%,0.00%,0.00%
NY,%,SummersVale,43.93,-73.5,222,62.16%,8.56%,3.15%,3.15%,6.31%,1.35%,0.00%,0.90%,0.00%,11.71%,0.00%,0.45%,0.45%,0.00%,1.35%,0.45%,0.00%,0.00%,0.00%,0.00%,0.00%,0.00%,0.00%,0.00%,0.00%
NY,%,West of Road Patent,43.91,-73.82,235,31.91%,5.96%,11.49%,0.00%,17.45%,0.00%,0.00%,0.43%,0.00%,26.81%,2.55%,1.70%,0.00%,0.00%,1.70%,0.00%,0.00%,0.00%,0.00%,0.00%,0.00%,0.00%,0.00%,0.00%,0.00%
NY,%,T 6 Black River (Henderson),43.85,-76.16,126,26.98%,26.19%,4.76%,10.32%,3.17%,4.76%,0.79%,0.79%,2.38%,1.59%,0.00%,4.76%,4.76%,0.00%,6.35%,2.38%,0.00%,0.00%,0.00%,0.00%,0.00%,0.00%,0.00%,0.00%,0.00%
NY,%,T 7 Black River (Adams),43.85,-76.04,123,43.09%,34.15%,3.25%,8.13%,1.63%,5.69%,0.00%,0.00%,0.00%,0.00%,0.00%,0.00%,0.81%,0.00%,3.25%,0.00%,0.00%,0.00%,0.00%,0.00%,0.00%,0.00%,0.00%,0.00%,0.00%
NY,%,T 9 Black River (Pickney),43.84,-75.78,229,45.41%,26.64%,3.06%,6.99%,4.80%,0.00%,2.18%,0.00%,0.00%,8.30%,0.44%,0.00%,0.00%,0.00%,2.18%,0.00%,0.00%,0.00%,0.00%,0.00%,0.00%,0.00%,0.00%,0.00%,0.00%
NY,%,Schroon Tract,43.8233,-73.6983,136,23.53%,3.68%,4.41%,0.00%,38.97%,0.74%,0.00%,2.21%,0.00%,22.06%,0.00%,3.68%,0.00%,0.00%,0.74%,0.00%,0.00%,0.00%,0.00%,0.00%,0.00%,0.00%,0.00%,0.00%,0.00%
NY,%,T 11 Black River (Lowville) combi ,43.82,-75.52,118,32.20%,30.51%,10.17%,5.93%,7.63%,0.00%,7.63%,0.85%,0.00%,0.00%,0.00%,5.08%,0.00%,0.00%,0.00%,0.00%,0.00%,0.00%,0.00%,0.00%,0.00%,0.00%,0.00%,0.00%,0.00%
NY,%,Hoffman Twp.,43.817,-73.881667,84,41.67%,5.95%,21.43%,0.00%,5.95%,0.00%,0.00%,0.00%,0.00%,23.81%,0.00%,0.00%,0.00%,0.00%,1.19%,0.00%,0.00%,0.00%,0.00%,0.00%,0.00%,0.00%,0.00%,0.00%,0.00%
NY,%,T&C #6 ,43.7933,-74.575,93,20.43%,5.38%,15.05%,0.00%,2.15%,0.00%,0.00%,0.00%,0.00%,46.24%,6.45%,1.08%,0.00%,0.00%,0.00%,0.00%,2.15%,0.00%,0.00%,0.00%,0.00%,0.00%,0.00%,0.00%,1.08%
NY,%,"T&C #25 & bet #12,14",43.77,-73.98,84,35.71%,2.38%,20.24%,1.19%,14.29%,0.00%,1.19%,3.57%,0.00%,19.05%,1.19%,0.00%,0.00%,0.00%,0.00%,0.00%,0.00%,0.00%,0.00%,0.00%,0.00%,0.00%,0.00%,0.00%,1.19%
NY,%,Hutton's Bush,43.758,-73.392,187,21.93%,6.95%,3.21%,9.09%,35.83%,2.14%,2.14%,5.35%,1.07%,0.00%,0.00%,0.00%,7.49%,0.00%,3.21%,1.60%,0.00%,0.00%,0.00%,0.00%,0.00%,0.00%,0.00%,0.00%,0.00%
NY,%,T 1-2 Boylston (Lorrain-Worth),43.74,-75.91,92,64.13%,15.22%,7.61%,3.26%,5.43%,0.00%,0.00%,0.00%,0.00%,2.17%,0.00%,0.00%,0.00%,0.00%,2.17%,0.00%,0.00%,0.00%,0.00%,0.00%,0.00%,0.00%,0.00%,0.00%,0.00%
NY,%,T 3 Constable (Montague),43.73,-75.7,79,24.05%,18.99%,15.19%,5.06%,0.00%,0.00%,1.27%,0.00%,0.00%,32.91%,2.53%,0.00%,0.00%,0.00%,0.00%,0.00%,0.00%,0.00%,0.00%,0.00%,0.00%,0.00%,0.00%,0.00%,0.00%
NY,%,T 4-5 Boylston (Martinsburg),43.72,-75.53,84,27.38%,22.62%,19.05%,5.95%,10.71%,3.57%,3.57%,0.00%,0.00%,7.14%,0.00%,0.00%,0.00%,0.00%,0.00%,0.00%,0.00%,0.00%,0.00%,0.00%,0.00%,0.00%,0.00%,0.00%,0.00%
NY,%,Brandt Lake Tract,43.7167,-73.7317,331,35.65%,7.55%,6.95%,2.72%,22.96%,1.21%,0.60%,1.21%,0.00%,17.82%,0.30%,0.60%,0.60%,0.00%,0.60%,0.30%,0.00%,0.30%,0.00%,0.00%,0.00%,0.00%,0.00%,0.00%,0.60%
NY,%,John Brown #2 & #1 combi,43.71,-75.13,348,22.99%,11.21%,17.53%,0.00%,10.06%,0.00%,0.00%,1.15%,0.00%,31.32%,2.87%,0.00%,0.00%,0.00%,0.00%,0.57%,1.72%,0.29%,0.00%,0.00%,0.00%,0.00%,0.00%,0.00%,0.29%
NY,%,Ellisburg composite ,43.7069,-76.1631,51,43.14%,17.65%,5.88%,7.84%,7.84%,5.88%,3.92%,0.00%,1.96%,1.96%,0.00%,0.00%,1.96%,0.00%,0.00%,0.00%,0.00%,1.96%,0.00%,0.00%,0.00%,0.00%,0.00%,0.00%,0.00%
NY,%,MRT #3,43.705,-74.7967,134,29.85%,7.46%,8.96%,0.75%,4.48%,0.75%,0.00%,0.00%,0.00%,42.54%,5.22%,0.00%,0.00%,0.00%,0.00%,0.00%,0.00%,0.00%,0.00%,0.00%,0.00%,0.00%,0.00%,0.00%,0.00%
NY,%,MRT #2,43.66,-74.88,145,24.83%,11.72%,8.28%,0.00%,4.14%,0.00%,0.00%,0.00%,0.00%,47.59%,2.76%,0.69%,0.00%,0.00%,0.00%,0.00%,0.00%,0.00%,0.00%,0.00%,0.00%,0.00%,0.00%,0.00%,0.00%
NY,%,Brantingham Tract,43.66,-75.28,552,37.86%,8.15%,11.78%,2.54%,22.64%,0.54%,0.00%,0.91%,0.00%,13.22%,0.72%,0.00%,0.00%,0.00%,0.54%,0.54%,0.36%,0.18%,0.00%,0.00%,0.00%,0.00%,0.00%,0.00%,0.00%
NY,%,No. 6 Bolyston,43.65,-75.97,53,64.15%,11.32%,3.77%,1.89%,15.09%,0.00%,1.89%,0.00%,0.00%,1.89%,0.00%,0.00%,0.00%,0.00%,0.00%,0.00%,0.00%,0.00%,0.00%,0.00%,0.00%,0.00%,0.00%,0.00%,0.00%
NY,%,MRT #4,43.64,-74.72,132,17.42%,6.06%,16.67%,0.76%,2.27%,0.00%,0.00%,2.27%,0.00%,31.06%,20.45%,0.00%,0.00%,0.00%,0.00%,0.00%,1.52%,0.00%,0.00%,0.00%,0.00%,0.00%,0.00%,0.00%,1.52%
NY,%,Osceola (Montague),43.638,-75.6877,64,40.63%,14.06%,6.25%,0.00%,3.13%,0.00%,1.56%,0.00%,0.00%,26.56%,3.13%,0.00%,0.00%,0.00%,0.00%,0.00%,3.13%,0.00%,0.00%,0.00%,0.00%,0.00%,0.00%,0.00%,1.56%
NY,%,Tongue Mt. Tract,43.63,-73.58,88,29.55%,5.68%,7.95%,0.00%,10.23%,1.14%,0.00%,15.91%,1.14%,11.36%,0.00%,1.14%,12.50%,0.00%,2.27%,1.14%,0.00%,0.00%,0.00%,0.00%,0.00%,0.00%,0.00%,0.00%,0.00%
NY,%,Northwest Bay Tract,43.62,-73.65,219,33.33%,5.94%,11.42%,4.11%,11.87%,0.46%,0.00%,4.57%,0.00%,10.50%,0.00%,0.00%,10.05%,5.02%,1.83%,0.91%,0.00%,0.00%,0.00%,0.00%,0.00%,0.00%,0.00%,0.00%,0.00%
NY,%,T 10 Sandy Creek combi,43.6,-76.17,102,29.41%,21.57%,11.76%,3.92%,14.71%,0.00%,0.00%,1.96%,0.00%,0.00%,0.00%,0.00%,7.84%,2.94%,2.94%,0.00%,2.94%,0.00%,0.00%,0.00%,0.00%,0.00%,0.00%,0.00%,0.00%
NY,%,MRT #1,43.5983,-75.015,328,43.60%,8.54%,9.15%,0.00%,3.05%,0.00%,0.00%,0.00%,0.00%,33.54%,1.52%,0.00%,0.00%,0.00%,0.00%,0.00%,0.00%,0.30%,0.00%,0.00%,0.00%,0.00%,0.00%,0.00%,0.30%
NY,%,South Bay Tract,43.58,-73.4867,222,35.59%,4.50%,6.31%,3.15%,30.63%,0.45%,1.35%,6.31%,0.00%,7.66%,0.00%,0.00%,3.60%,0.00%,0.00%,0.00%,0.00%,0.00%,0.00%,0.00%,0.00%,0.00%,0.00%,0.00%,0.45%
NY,%,T&C Gore bt/ 11/Dart,43.552,-73.993,54,42.59%,11.11%,3.70%,0.00%,11.11%,0.00%,1.85%,1.85%,0.00%,25.93%,0.00%,0.00%,0.00%,0.00%,0.00%,0.00%,0.00%,0.00%,0.00%,0.00%,0.00%,0.00%,0.00%,0.00%,1.85%
NY,%,Inmans Tract,43.53,-75.4,108,21.30%,10.19%,3.70%,0.00%,23.15%,1.85%,4.63%,0.00%,0.00%,34.26%,0.00%,0.00%,0.00%,0.00%,0.00%,0.00%,0.00%,0.93%,0.00%,0.00%,0.00%,0.00%,0.00%,0.00%,0.00%
NY,%,T 13 Constable [Boylston],43.53,-75.7,52,40.38%,13.46%,17.31%,0.00%,0.00%,1.92%,0.00%,0.00%,0.00%,25.00%,0.00%,0.00%,0.00%,0.00%,0.00%,0.00%,0.00%,0.00%,0.00%,0.00%,1.92%,0.00%,0.00%,0.00%,0.00%
NY,%,"South line Macomb 6 (10,11,12 Bolyston)",43.53,-75.83,183,34.97%,11.48%,7.10%,1.64%,13.66%,3.28%,0.55%,0.00%,0.00%,22.95%,1.09%,0.00%,0.00%,0.00%,0.55%,0.00%,2.19%,0.55%,0.00%,0.00%,0.00%,0.00%,0.00%,0.00%,0.00%
NY,%,Skenesboro-Hampton combi,43.53,-73.36,242,27.27%,12.81%,2.89%,2.48%,27.69%,3.72%,6.20%,3.72%,2.48%,0.00%,0.00%,0.00%,1.24%,0.00%,4.55%,1.24%,0.00%,0.00%,0.00%,0.00%,2.48%,1.24%,0.00%,0.00%,0.00%
NY,%,MRT #9,43.5,-74.57,186,30.65%,9.14%,13.98%,0.00%,4.30%,0.54%,0.00%,0.00%,0.00%,27.42%,12.37%,0.00%,0.00%,0.00%,0.00%,0.00%,0.54%,0.00%,0.00%,0.00%,0.00%,0.00%,0.00%,0.00%,1.08%
NY,%,Ft. Ann,43.49,-73.53,179,25.70%,4.47%,6.15%,1.12%,26.82%,1.12%,1.12%,11.17%,0.56%,10.06%,0.00%,0.56%,7.82%,0.00%,1.68%,1.68%,0.00%,0.00%,0.00%,0.00%,0.00%,0.00%,0.00%,0.00%,0.00%
NY,%,T 1 Constable combi,43.47,-75.59,213,42.72%,13.15%,7.98%,6.10%,9.39%,0.47%,0.00%,0.00%,0.00%,19.25%,0.47%,0.00%,0.00%,0.00%,0.47%,0.00%,0.00%,0.00%,0.00%,0.00%,0.00%,0.00%,0.00%,0.00%,0.00%
NY,%,Palmers Purchase,43.46,-74.08,63,25.40%,14.29%,12.70%,0.00%,22.22%,3.17%,0.00%,1.59%,0.00%,19.05%,0.00%,0.00%,0.00%,0.00%,0.00%,0.00%,1.59%,0.00%,0.00%,0.00%,0.00%,0.00%,0.00%,0.00%,0.00%
NY,%,Adgate Purchase (Boonville),43.46,-75.35,365,28.22%,17.81%,14.52%,3.29%,16.99%,0.00%,3.29%,0.00%,0.00%,13.97%,0.55%,0.00%,0.00%,0.00%,0.55%,0.00%,0.27%,0.00%,0.00%,0.00%,0.55%,0.00%,0.00%,0.00%,0.00%
NY,%,French Mt. Tract,43.43,-73.65,70,12.86%,5.71%,5.71%,5.71%,8.57%,0.00%,1.43%,5.71%,4.29%,0.00%,0.00%,7.14%,21.43%,12.86%,0.00%,2.86%,5.71%,0.00%,0.00%,0.00%,0.00%,0.00%,0.00%,0.00%,0.00%
NY,%,Warrensburg Patent & Luzerne river,43.43,-73.86,53,28.30%,11.32%,7.55%,0.00%,35.85%,3.77%,0.00%,0.00%,0.00%,7.55%,0.00%,0.00%,1.89%,0.00%,1.89%,0.00%,0.00%,0.00%,0.00%,0.00%,1.89%,0.00%,0.00%,0.00%,0.00%
NY,%,Scriba #4 (Florence),43.43,-75.77,172,39.53%,21.51%,5.81%,6.98%,15.12%,2.91%,1.74%,0.00%,0.00%,5.23%,0.00%,0.00%,0.00%,0.00%,1.16%,0.00%,0.00%,0.00%,0.00%,0.00%,0.00%,0.00%,0.00%,0.00%,0.00%
NY,%,Granville,43.4193,-73.3128,76,35.53%,22.37%,9.21%,5.26%,22.37%,1.32%,0.00%,0.00%,2.63%,0.00%,0.00%,0.00%,1.32%,0.00%,0.00%,0.00%,0.00%,0.00%,0.00%,0.00%,0.00%,0.00%,0.00%,0.00%,0.00%
NY,%,Artillery-Kingsbury combi,43.41,-73.51,83,22.89%,18.07%,10.84%,12.05%,13.25%,6.02%,4.82%,3.61%,1.20%,0.00%,0.00%,0.00%,3.61%,1.20%,2.41%,0.00%,0.00%,0.00%,0.00%,0.00%,0.00%,0.00%,0.00%,0.00%,0.00%
NY,%,Oxbow,43.38,-74.53,287,30.31%,9.76%,11.50%,1.74%,10.45%,0.35%,0.00%,1.74%,0.00%,26.83%,5.23%,0.00%,0.35%,0.00%,0.35%,0.00%,0.35%,0.35%,0.00%,0.00%,0.00%,0.00%,0.00%,0.00%,0.70%
NY,%,Town No. 6 (Scriba Patent) ,43.3785,-75.9369,141,35.46%,17.02%,3.55%,4.96%,34.04%,0.00%,0.00%,0.00%,0.00%,3.55%,0.00%,0.00%,0.00%,0.00%,0.00%,0.00%,1.42%,0.00%,0.00%,0.00%,0.00%,0.00%,0.00%,0.00%,0.00%
NY,%,"Hartford (Provincial Patent, Westfield)",43.3624,-73.422,116,29.31%,20.69%,0.86%,6.03%,28.45%,8.62%,4.31%,0.00%,0.00%,0.00%,0.00%,0.00%,0.86%,0.00%,0.86%,0.00%,0.00%,0.00%,0.00%,0.00%,0.00%,0.00%,0.00%,0.00%,0.00%
NY,%,Luzerne Tract ,43.3583,-73.7717,310,28.39%,5.81%,5.16%,1.29%,25.48%,0.00%,0.00%,9.35%,0.65%,2.90%,0.00%,0.00%,20.00%,0.00%,0.97%,0.00%,0.00%,0.00%,0.00%,0.00%,0.00%,0.00%,0.00%,0.00%,0.00%
NY,%,Sterling,43.29,-76.66,106,65.09%,11.32%,0.00%,6.60%,14.15%,0.94%,0.94%,0.00%,0.00%,0.00%,0.00%,0.00%,0.00%,0.00%,0.00%,0.00%,0.94%,0.00%,0.00%,0.00%,0.00%,0.00%,0.00%,0.00%,0.00%
NY,%,BensonNY,43.2817,-74.4183,223,35.43%,6.28%,4.04%,0.45%,13.90%,0.00%,0.45%,0.00%,0.00%,33.63%,2.24%,0.00%,0.00%,0.00%,0.00%,0.00%,0.00%,0.00%,0.00%,0.00%,0.00%,0.00%,0.00%,0.00%,3.59%
NY,%,Hebron (Letters Patent),43.2813,-73.3266,88,34.09%,11.36%,13.64%,1.14%,9.09%,3.41%,5.68%,6.82%,4.55%,0.00%,0.00%,0.00%,4.55%,1.14%,1.14%,1.14%,0.00%,0.00%,0.00%,0.00%,2.27%,0.00%,0.00%,0.00%,0.00%
NY,%,Servis' grant,43.28,-75.19,66,45.45%,18.18%,9.09%,4.55%,6.06%,3.03%,4.55%,0.00%,0.00%,1.52%,0.00%,0.00%,0.00%,0.00%,4.55%,0.00%,0.00%,0.00%,0.00%,0.00%,0.00%,1.52%,1.52%,0.00%,0.00%
NY,%,HLC-T15RI,43.26,-78.18,139,41.01%,23.02%,1.44%,7.91%,1.44%,9.35%,7.91%,0.00%,0.72%,0.00%,0.00%,0.00%,2.88%,0.00%,0.00%,2.88%,0.00%,0.00%,0.00%,0.00%,0.00%,1.44%,0.00%,0.00%,0.00%
NY,%,HLC-T15RIII,43.26,-78.33,147,41.50%,19.73%,1.36%,9.52%,6.80%,6.12%,9.52%,0.00%,3.40%,0.00%,0.00%,0.00%,0.68%,0.00%,0.00%,1.36%,0.00%,0.00%,0.00%,0.00%,0.00%,0.00%,0.00%,0.00%,0.00%
NY,%,HLC-T15RV,43.26,-78.54,291,34.02%,21.99%,2.75%,10.31%,2.75%,7.22%,7.56%,0.00%,1.72%,0.00%,0.00%,0.00%,7.22%,0.00%,1.03%,0.69%,0.34%,0.69%,0.00%,0.00%,1.03%,0.69%,0.00%,0.00%,0.00%
NY,%,"Kay River (Allots 23, 25, 17E)",43.25,-73.73,86,6.98%,0.00%,3.49%,0.00%,15.12%,0.00%,0.00%,43.02%,0.00%,0.00%,0.00%,0.00%,26.74%,4.65%,0.00%,0.00%,0.00%,0.00%,0.00%,0.00%,0.00%,0.00%,0.00%,0.00%,0.00%
NY,%,HLC-T15RVII,43.25,-78.77,291,34.02%,18.21%,1.03%,6.87%,0.00%,7.90%,7.56%,0.34%,4.12%,0.00%,0.00%,0.00%,15.12%,1.72%,0.69%,0.69%,0.00%,0.00%,0.00%,0.34%,0.00%,0.00%,1.03%,0.00%,0.34%
NY,%,Argyle (town & farm deeds) ,43.243,-73.47,424,32.55%,11.08%,5.90%,3.30%,16.75%,0.47%,1.89%,2.59%,1.42%,0.00%,0.00%,0.00%,9.43%,5.19%,5.66%,1.65%,0.24%,0.00%,0.00%,0.00%,1.42%,0.00%,0.00%,0.00%,0.47%
NY,%,HLC-T15RIX,43.24,-79,154,37.01%,10.39%,0.00%,9.09%,2.60%,8.44%,4.55%,0.00%,0.00%,0.00%,0.00%,0.00%,26.62%,0.00%,0.00%,1.30%,0.00%,0.00%,0.00%,0.00%,0.00%,0.00%,0.00%,0.00%,0.00%
NY,%,T14 RI P&G,43.24,-77.06,366,62.84%,8.20%,4.10%,0.55%,14.75%,6.56%,1.37%,0.00%,0.00%,0.00%,0.00%,0.00%,0.00%,0.27%,1.09%,0.00%,0.00%,0.00%,0.00%,0.00%,0.00%,0.27%,0.00%,0.00%,0.00%
NY,%,T14R2&3 P&G combi,43.24,-77.25,493,47.06%,10.34%,4.87%,1.83%,24.54%,5.27%,4.87%,0.00%,0.00%,0.00%,0.00%,0.00%,0.00%,0.00%,0.00%,0.00%,0.81%,0.00%,0.00%,0.00%,0.00%,0.41%,0.00%,0.00%,0.00%
NY,%,Fish Creek,43.235,-75.662,165,39.39%,13.94%,8.48%,3.03%,12.73%,1.21%,3.64%,1.21%,1.21%,4.85%,0.00%,0.00%,0.00%,0.00%,3.03%,0.00%,0.00%,0.00%,0.00%,0.61%,1.82%,4.24%,0.00%,0.00%,0.61%
NY,%,Tri- Parma Gore,43.23,-77.84,147,58.50%,10.20%,0.00%,4.76%,3.40%,6.80%,4.76%,0.00%,0.68%,0.00%,0.00%,0.00%,3.40%,0.00%,1.36%,0.00%,0.00%,0.00%,0.00%,0.00%,0.00%,1.36%,4.76%,0.00%,0.00%
NY,%,Lysander,43.212167,-76.371667,99,33.33%,23.23%,4.04%,12.12%,13.13%,1.01%,3.03%,0.00%,4.04%,0.00%,0.00%,0.00%,1.01%,2.02%,1.01%,2.02%,0.00%,0.00%,0.00%,0.00%,0.00%,0.00%,0.00%,0.00%,0.00%
NY,%,Cato,43.21,-76.56,142,54.23%,23.24%,2.82%,4.93%,5.63%,4.23%,2.82%,0.00%,0.00%,0.00%,0.00%,0.00%,0.00%,0.00%,0.00%,0.00%,0.70%,0.00%,0.00%,0.00%,0.00%,0.00%,0.00%,0.00%,1.41%
NY,%,Cicero,43.19,-76.14,167,35.33%,12.57%,5.99%,10.18%,13.77%,4.19%,4.79%,4.79%,2.40%,0.00%,0.00%,0.00%,2.40%,0.00%,0.60%,0.00%,1.80%,0.00%,0.00%,0.00%,0.60%,0.60%,0.00%,0.00%,0.00%
NY,%,"Kay North (Allots 17W, 22, 24)",43.18,-73.87,116,43.97%,10.34%,3.45%,1.72%,23.28%,3.45%,0.00%,0.86%,0.00%,0.00%,0.00%,0.00%,8.62%,4.31%,0.00%,0.00%,0.00%,0.00%,0.00%,0.00%,0.00%,0.00%,0.00%,0.00%,0.00%
NY,%,"Kay NE River (Allots 18, 19, 20, 10)",43.18,-73.64,170,5.29%,7.06%,1.76%,4.12%,8.24%,1.18%,4.12%,35.29%,2.94%,0.00%,0.00%,0.00%,21.18%,1.76%,0.59%,1.18%,0.00%,1.18%,0.00%,0.00%,4.12%,0.00%,0.00%,0.00%,0.00%
NY,%,Oriskany Patent combi,43.18,-75.32,189,44.44%,17.46%,5.29%,3.70%,14.29%,3.70%,1.59%,1.59%,0.53%,0.00%,0.00%,1.59%,0.00%,0.00%,1.06%,0.53%,0.53%,0.00%,0.00%,0.00%,2.12%,1.59%,0.00%,0.00%,0.00%
NY,%,"Salem (Turner Patent, New Perth)",43.1629,-73.3177,162,45.06%,11.11%,8.64%,1.85%,0.00%,3.09%,3.70%,4.94%,3.09%,0.00%,0.00%,0.00%,5.56%,0.00%,9.88%,0.62%,0.00%,1.23%,0.00%,0.00%,0.62%,0.62%,0.00%,0.00%,0.00%
NY,%,T13R2&3 P&G combi,43.16,-77.25,311,51.77%,21.54%,0.64%,11.25%,7.07%,1.29%,3.86%,0.32%,0.00%,0.00%,0.00%,0.00%,0.00%,0.00%,0.96%,0.00%,1.29%,0.00%,0.00%,0.00%,0.00%,0.00%,0.00%,0.00%,0.00%
NY,%,Gage's & Cosby's Patent,43.15,-75.17,91,32.97%,30.77%,6.59%,0.00%,16.48%,6.59%,1.10%,0.00%,0.00%,0.00%,0.00%,0.00%,0.00%,0.00%,1.10%,0.00%,0.00%,0.00%,0.00%,0.00%,4.40%,0.00%,0.00%,0.00%,0.00%
NY,%,Geny Mth-T13R7 (Rochester),43.15,-77.61,282,20.92%,8.51%,1.42%,9.93%,2.48%,8.16%,4.61%,7.09%,3.55%,0.00%,0.00%,0.00%,20.57%,7.45%,1.77%,1.77%,0.00%,0.00%,0.00%,0.00%,0.00%,0.00%,1.06%,0.00%,0.71%
NY,%,1st Pagan Purchase,43.148,-75.6205,132,30.30%,10.61%,15.91%,9.09%,21.21%,3.03%,3.03%,0.76%,0.00%,0.00%,0.00%,0.00%,2.27%,0.00%,1.52%,0.00%,0.00%,0.00%,0.00%,0.76%,0.00%,1.52%,0.00%,0.00%,0.00%
NY,%,Oneida NW Res. ,43.1443,-75.9147,259,15.83%,15.06%,4.25%,17.37%,20.46%,4.25%,3.47%,1.16%,2.70%,0.39%,0.00%,1.93%,6.56%,0.77%,0.39%,0.00%,0.77%,0.00%,0.00%,0.39%,2.70%,0.39%,0.00%,0.00%,1.16%
NY,%,HLC-T13RIX,43.11,-78.96,69,31.88%,15.94%,0.00%,5.80%,0.00%,14.49%,8.70%,0.00%,2.90%,0.00%,0.00%,0.00%,13.04%,0.00%,0.00%,4.35%,0.00%,1.45%,0.00%,0.00%,0.00%,1.45%,0.00%,0.00%,0.00%
NY,%,Galen,43.1,-76.86,105,40.95%,15.24%,1.90%,14.29%,7.62%,6.67%,4.76%,0.00%,2.86%,0.00%,0.00%,0.00%,3.81%,0.95%,0.00%,0.00%,0.00%,0.00%,0.00%,0.00%,0.95%,0.00%,0.00%,0.00%,0.00%
NY,%,Onond. Salt Springs,43.0985,-76.2203,402,8.71%,6.72%,1.24%,10.20%,11.44%,4.48%,4.98%,6.22%,3.23%,0.00%,0.00%,6.22%,24.63%,5.72%,0.75%,1.00%,0.25%,0.25%,0.00%,0.00%,1.00%,1.00%,0.75%,0.00%,1.24%
NY,%,Oneida Castle,43.0957,-75.675,421,29.69%,15.44%,5.46%,9.50%,15.91%,6.18%,5.23%,0.48%,1.90%,0.00%,0.00%,1.66%,1.90%,0.00%,2.85%,0.00%,0.00%,0.00%,0.00%,0.00%,0.95%,1.43%,0.48%,0.00%,0.95%
NY,%,HLC-T13R!,43.09,-78.18,151,27.81%,26.49%,0.00%,13.91%,1.32%,11.26%,5.96%,0.00%,0.00%,0.00%,0.00%,2.65%,0.00%,0.00%,0.66%,0.00%,9.27%,0.00%,0.00%,0.00%,0.00%,0.00%,0.00%,0.00%,0.66%
NY,%,HLC-T13RIII,43.09,-78.33,162,28.40%,16.67%,0.62%,12.35%,8.64%,6.17%,8.02%,0.62%,3.70%,1.85%,0.00%,1.85%,9.26%,0.00%,0.62%,0.00%,1.23%,0.00%,0.00%,0.00%,0.00%,0.00%,0.00%,0.00%,0.00%
NY,%,HLC-T13RV,43.09,-78.54,367,23.98%,22.07%,1.36%,15.26%,4.63%,7.08%,8.45%,0.00%,3.81%,0.00%,0.00%,0.00%,8.99%,0.00%,1.91%,0.27%,0.82%,0.00%,0.00%,0.54%,0.54%,0.00%,0.00%,0.27%,0.00%
NY,%,HLC-T13RVII,43.09,-78.77,265,20.75%,19.25%,1.51%,23.77%,0.38%,8.30%,11.32%,0.00%,2.26%,0.00%,0.00%,0.00%,9.06%,0.38%,0.75%,0.00%,0.00%,0.00%,0.00%,0.38%,0.38%,1.51%,0.00%,0.00%,0.00%
NY,%,T12 RI P&G,43.09,-77.09,108,42.59%,17.59%,0.00%,10.19%,1.85%,4.63%,4.63%,0.00%,7.41%,0.00%,0.00%,0.00%,3.70%,0.00%,3.70%,0.00%,1.85%,0.00%,0.00%,0.00%,0.93%,0.93%,0.00%,0.00%,0.00%
NY,%,Camillus,43.08,-76.36,149,39.60%,19.46%,1.34%,10.07%,12.08%,8.05%,3.36%,0.67%,3.36%,0.00%,0.00%,0.67%,0.00%,0.00%,0.67%,0.00%,0.67%,0.00%,0.00%,0.00%,0.00%,0.00%,0.00%,0.00%,0.00%
NY,%,Brutus,43.08,-76.6,77,37.66%,23.38%,2.60%,22.08%,1.30%,0.00%,5.19%,0.00%,0.00%,0.00%,0.00%,0.00%,2.60%,0.00%,1.30%,0.00%,1.30%,0.00%,0.00%,0.00%,0.00%,2.60%,0.00%,0.00%,0.00%
NY,%,Perinton all,43.08,-77.43,86,38.37%,17.44%,0.00%,11.63%,0.00%,0.00%,0.00%,1.16%,4.65%,1.16%,0.00%,0.00%,19.77%,0.00%,4.65%,0.00%,0.00%,0.00%,0.00%,0.00%,1.16%,0.00%,0.00%,0.00%,0.00%
NY,%,Pult T12 RII&III,43.08,-77.25,78,57.69%,12.82%,1.28%,14.10%,3.85%,1.28%,3.85%,0.00%,0.00%,0.00%,0.00%,0.00%,2.56%,0.00%,1.28%,0.00%,0.00%,0.00%,0.00%,0.00%,0.00%,0.00%,1.28%,0.00%,0.00%
NY,%,Canastota Tract,43.078,-75.782,153,25.49%,16.99%,3.27%,15.69%,21.57%,3.92%,4.58%,0.00%,0.65%,0.00%,0.00%,1.31%,0.00%,0.00%,1.96%,0.00%,0.00%,0.00%,0.00%,0.00%,0.00%,3.27%,0.00%,0.00%,1.31%
NY,%,TriangleSouth,43.06,-77.94,130,33.85%,22.31%,0.77%,0.77%,1.54%,13.08%,8.46%,0.00%,0.77%,0.00%,0.00%,0.00%,14.62%,1.54%,2.31%,0.00%,0.00%,0.00%,0.00%,0.00%,0.00%,0.00%,0.00%,0.00%,0.00%
NY,%,"Kay West (Allots 14, 16, 21)",43.05,-74,146,29.45%,6.16%,0.00%,8.90%,18.49%,9.59%,1.37%,15.75%,0.00%,0.00%,0.00%,0.00%,4.79%,0.68%,2.74%,0.00%,0.00%,0.00%,0.00%,0.00%,2.05%,0.00%,0.00%,0.00%,0.00%
NY,%,Coxbury ,43.05,-75.39,84,55.95%,11.90%,7.14%,1.19%,5.95%,8.33%,0.00%,0.00%,0.00%,0.00%,0.00%,0.00%,1.19%,2.38%,3.57%,0.00%,0.00%,2.38%,0.00%,0.00%,0.00%,0.00%,0.00%,0.00%,0.00%
NY,%,Cambridge Patent composite,43.0383,-73.4067,118,34.75%,20.34%,1.69%,3.39%,5.08%,1.69%,3.39%,8.47%,1.69%,0.00%,0.00%,0.00%,11.02%,5.93%,1.69%,0.00%,0.00%,0.85%,0.00%,0.00%,0.00%,0.00%,0.00%,0.00%,0.00%
NY,%,White Creek,43.03,-73.3,92,46.74%,17.39%,8.70%,3.26%,0.00%,5.43%,1.09%,3.26%,1.09%,0.00%,0.00%,0.00%,6.52%,0.00%,5.43%,0.00%,0.00%,0.00%,0.00%,0.00%,1.09%,0.00%,0.00%,0.00%,0.00%
NY,%,Saratoga Pat. East,43.0245,-73.5377,213,12.21%,17.37%,3.76%,0.94%,4.23%,1.88%,1.41%,6.57%,3.29%,0.00%,0.00%,0.00%,36.62%,7.51%,1.88%,2.35%,0.00%,0.00%,0.00%,0.00%,0.00%,0.00%,0.00%,0.00%,0.00%
NY,%,Candga Outlet,43.02,-77,147,41.50%,12.93%,1.36%,4.08%,2.04%,4.76%,4.76%,4.08%,4.08%,0.00%,0.00%,0.00%,14.97%,0.68%,1.36%,0.00%,0.00%,0.68%,0.00%,0.00%,0.00%,1.36%,1.36%,0.00%,0.00%
NY,%,"Kay Lake (Allots 5,9,15)",43.00867,-73.7707,160,10.63%,8.13%,5.63%,5.63%,8.75%,2.50%,1.25%,10.00%,4.38%,0.00%,0.00%,0.00%,29.38%,2.50%,6.25%,0.63%,2.50%,0.00%,0.00%,0.00%,1.88%,0.00%,0.00%,0.00%,0.00%
NY,%,Stillwater (Saratoga Patent),42.9953,-73.6743,202,6.93%,4.46%,0.00%,6.44%,0.50%,0.50%,6.93%,31.19%,0.50%,0.00%,0.00%,0.00%,31.19%,7.92%,0.99%,0.00%,0.00%,0.99%,0.00%,0.00%,0.00%,1.49%,0.00%,0.00%,0.00%
NY,%,New Petersburg,42.99,-75.71,343,40.82%,22.16%,8.45%,2.92%,11.66%,3.50%,2.92%,1.17%,0.29%,0.00%,0.29%,2.33%,0.00%,0.00%,2.92%,0.29%,0.00%,0.00%,0.00%,0.00%,0.00%,0.00%,0.00%,0.00%,0.29%
NY,%,Onondaga Resv. West,42.985,-76.195,185,35.68%,22.70%,1.62%,3.78%,6.49%,6.49%,2.70%,0.00%,4.86%,0.00%,0.00%,0.54%,7.03%,0.00%,7.03%,0.00%,0.00%,0.54%,0.00%,0.00%,0.54%,0.00%,0.00%,0.00%,0.00%
NY,%,Kay Southwest (Allot 13),42.96,-74,111,18.02%,5.41%,1.80%,9.01%,14.41%,1.80%,3.60%,14.41%,2.70%,0.00%,0.00%,0.00%,19.82%,0.00%,3.60%,1.80%,0.00%,0.00%,0.00%,0.00%,1.80%,0.00%,0.00%,0.00%,1.80%
NY,%,Junius,42.96,-76.85,113,43.36%,4.42%,0.88%,14.16%,0.00%,1.77%,4.42%,1.77%,0.00%,0.00%,0.00%,0.00%,23.89%,0.88%,0.00%,0.88%,0.00%,0.00%,0.00%,0.00%,0.00%,2.65%,0.88%,0.00%,0.00%
NY,%,Bayards Patent/Oneida,42.95,-75.2,480,46.67%,22.50%,1.67%,1.04%,7.71%,3.75%,9.79%,0.00%,0.00%,0.00%,0.00%,1.25%,0.00%,0.00%,4.38%,0.00%,0.00%,0.00%,0.00%,0.00%,0.00%,0.00%,0.00%,0.00%,1.25%
NY,%,Hoosuc Patent,42.94,-73.38,60,1.67%,8.33%,3.33%,0.00%,11.67%,1.67%,0.00%,8.33%,0.00%,0.00%,0.00%,0.00%,41.67%,3.33%,3.33%,5.00%,0.00%,3.33%,0.00%,0.00%,8.33%,0.00%,0.00%,0.00%,0.00%
NY,%,Pult T10-&11 RV&IV,42.94,-77.56,58,18.97%,12.07%,0.00%,8.62%,0.00%,10.34%,1.72%,0.00%,8.62%,0.00%,0.00%,0.00%,32.76%,0.00%,3.45%,0.00%,1.72%,0.00%,0.00%,0.00%,0.00%,0.00%,1.72%,0.00%,0.00%
NY,%,Craigie Tract,42.93,-78.03,708,70.34%,16.24%,0.00%,12.01%,0.14%,0.56%,0.56%,0.00%,0.00%,0.00%,0.00%,0.14%,0.00%,0.00%,0.00%,0.00%,0.00%,0.00%,0.00%,0.00%,0.00%,0.00%,0.00%,0.00%,0.00%
NY,%,Pompey,42.92,-76,140,31.43%,30.00%,5.71%,4.29%,8.57%,9.29%,2.86%,0.71%,0.71%,0.00%,0.00%,0.00%,0.71%,0.00%,4.29%,0.00%,0.00%,0.71%,0.00%,0.00%,0.71%,0.00%,0.00%,0.00%,0.00%
NY,%,Marcellus,42.92,-76.375,145,49.66%,24.83%,1.38%,2.07%,7.59%,2.07%,4.14%,1.38%,0.00%,0.00%,0.00%,0.00%,2.76%,0.00%,2.76%,0.69%,0.00%,0.00%,0.00%,0.00%,0.69%,0.00%,0.00%,0.00%,0.00%
NY,%,Aurelius,42.92,-76.57,135,53.33%,22.22%,2.22%,4.44%,0.00%,8.89%,2.96%,0.00%,0.74%,0.00%,0.00%,0.00%,1.48%,0.74%,2.22%,0.74%,0.00%,0.00%,0.00%,0.00%,0.00%,0.00%,0.00%,0.00%,0.00%
NY,%,HLC-T11RI,42.91,-78.16,173,36.42%,26.01%,1.73%,4.62%,0.00%,17.34%,10.98%,0.00%,0.58%,0.00%,0.00%,0.00%,0.00%,0.00%,1.73%,0.00%,0.00%,0.00%,0.00%,0.00%,0.58%,0.00%,0.00%,0.00%,0.00%
NY,%,HLC-T11RIII,42.91,-78.33,146,39.04%,25.34%,1.37%,4.79%,4.11%,12.33%,10.96%,0.00%,0.00%,0.00%,0.00%,0.00%,0.00%,0.00%,1.37%,0.00%,0.00%,0.68%,0.00%,0.00%,0.00%,0.00%,0.00%,0.00%,0.00%
NY,%,HLC-T11RV,42.91,-78.54,265,33.58%,18.87%,2.64%,6.04%,8.68%,10.94%,7.92%,0.75%,1.13%,0.00%,0.00%,1.51%,4.15%,0.00%,1.13%,1.89%,0.00%,0.75%,0.00%,0.00%,0.00%,0.00%,0.00%,0.00%,0.00%
NY,%,Delancy Patent & Glen,42.91,-74.37,110,11.82%,5.45%,3.64%,4.55%,16.36%,4.55%,4.55%,12.73%,3.64%,0.91%,0.00%,0.00%,21.82%,0.00%,2.73%,2.73%,0.00%,0.91%,0.00%,0.00%,0.91%,0.00%,0.00%,0.00%,2.73%
NY,%,Sara Southeast ,42.9,-73.73,88,1.14%,6.82%,0.00%,5.68%,1.14%,5.68%,4.55%,27.27%,5.68%,0.00%,0.00%,0.00%,30.68%,1.14%,7.95%,1.14%,0.00%,0.00%,0.00%,0.00%,0.00%,0.00%,0.00%,0.00%,1.14%
NY,%,HLC-T11RVII,42.9,-78.78,358,20.11%,16.48%,3.63%,11.73%,6.42%,7.82%,6.15%,0.56%,4.47%,0.00%,0.00%,0.00%,16.20%,0.84%,1.12%,1.68%,0.56%,0.00%,0.00%,0.00%,0.28%,0.84%,1.12%,0.00%,0.00%
NY,%,Livingston Patent composite,42.9,-74.76,228,43.42%,10.09%,3.07%,5.70%,26.32%,2.19%,1.32%,0.44%,0.00%,0.00%,0.00%,0.00%,3.07%,0.00%,2.19%,1.32%,0.00%,0.44%,0.00%,0.00%,0.44%,0.00%,0.00%,0.00%,0.00%
NY,%,"Kay Schen (Allots 3,4,6,7)",42.89,-74,137,18.98%,12.41%,1.46%,16.06%,6.57%,1.46%,3.65%,8.03%,2.92%,0.00%,0.00%,0.00%,13.14%,0.73%,5.84%,5.84%,0.00%,0.00%,0.00%,0.00%,1.46%,0.00%,0.00%,0.00%,1.46%
NY,%,Scaghaktot (Sachaghitcoke) ,42.89,-73.61,297,0.67%,3.03%,2.02%,0.34%,0.00%,3.03%,2.36%,40.40%,7.41%,0.00%,0.00%,0.00%,30.30%,0.00%,3.03%,1.35%,0.34%,1.68%,0.00%,0.00%,1.68%,2.02%,0.00%,0.00%,0.34%
NY,%,ChenNW (T1-2-5-6 north line),42.88,-75.69,48,64.58%,14.58%,2.08%,2.08%,6.25%,8.33%,0.00%,0.00%,0.00%,0.00%,0.00%,0.00%,0.00%,0.00%,2.08%,0.00%,0.00%,0.00%,0.00%,0.00%,0.00%,0.00%,0.00%,0.00%,0.00%
NY,%,Morris-River-Reserv-40KE,42.85,-77.84,301,18.27%,17.28%,0.33%,4.65%,0.00%,4.32%,13.95%,1.00%,4.65%,0.00%,0.00%,0.33%,27.24%,0.00%,1.99%,0.33%,0.00%,0.00%,0.00%,0.00%,2.99%,1.33%,0.66%,0.00%,0.66%
NY,%,Geneva vic.,42.85,-77,75,30.67%,12.00%,0.00%,2.67%,2.67%,4.00%,2.67%,5.33%,4.00%,0.00%,0.00%,0.00%,28.00%,0.00%,1.33%,1.33%,1.33%,0.00%,0.00%,0.00%,0.00%,0.00%,4.00%,0.00%,0.00%
NY,%,E/CayugRes,42.84,-76.68,186,26.88%,17.74%,0.00%,8.60%,0.00%,8.06%,2.15%,0.00%,15.59%,0.00%,0.00%,0.00%,17.74%,0.00%,2.15%,0.00%,0.00%,0.00%,0.00%,0.00%,0.54%,0.00%,0.54%,0.00%,0.00%
NY,%,Morris-Meridian 40/M  West of Cal Rd.,42.84,-77.95,121,68.60%,14.88%,0.00%,4.96%,0.00%,5.79%,4.13%,0.00%,0.00%,0.00%,0.00%,0.00%,0.00%,0.00%,0.83%,0.00%,0.00%,0.00%,0.00%,0.00%,0.00%,0.00%,0.83%,0.00%,0.00%
NY,%,ChenNE (T3-4-18-19-20),42.83,-75.4,54,46.30%,24.07%,3.70%,3.70%,5.56%,11.11%,3.70%,0.00%,0.00%,0.00%,0.00%,0.00%,0.00%,0.00%,1.85%,0.00%,0.00%,0.00%,0.00%,0.00%,0.00%,0.00%,0.00%,0.00%,0.00%
NY,%,Corry's Patent combi,42.83,-74.39,303,48.18%,10.56%,1.65%,3.63%,25.74%,3.63%,0.99%,0.00%,0.00%,0.00%,0.00%,0.00%,2.64%,0.00%,0.33%,0.99%,0.00%,1.32%,0.00%,0.00%,0.00%,0.00%,0.00%,0.00%,0.33%
NY,%,W/CayugRes,42.81,-76.76,127,32.28%,18.11%,0.00%,4.72%,0.00%,7.87%,0.00%,0.00%,2.36%,0.00%,0.00%,0.00%,29.13%,0.00%,3.94%,1.57%,0.00%,0.00%,0.00%,0.00%,0.00%,0.00%,0.00%,0.00%,0.00%
NY,%,Cherry Valley Patent ,42.81,-74.77,59,35.59%,27.12%,5.08%,1.69%,10.17%,5.08%,1.69%,1.69%,0.00%,3.39%,0.00%,0.00%,3.39%,0.00%,5.08%,0.00%,0.00%,0.00%,0.00%,0.00%,0.00%,0.00%,0.00%,0.00%,0.00%
NY,%,Tully,42.8,-76.17,116,67.24%,24.14%,0.86%,0.86%,1.72%,0.86%,1.72%,0.00%,0.00%,0.00%,0.00%,0.00%,0.86%,0.00%,1.72%,0.00%,0.00%,0.00%,0.00%,0.00%,0.00%,0.00%,0.00%,0.00%,0.00%
NY,%,Romulus,42.8,-76.87,140,20.00%,32.14%,0.71%,7.14%,0.00%,5.71%,1.43%,2.14%,8.57%,0.00%,0.00%,0.00%,18.57%,0.00%,0.71%,1.43%,0.00%,0.00%,0.00%,0.00%,0.71%,0.00%,0.00%,0.00%,0.71%
NY,%,Schnectady,42.7928,-74.2046,154,48.70%,9.09%,2.60%,5.19%,16.23%,1.30%,0.65%,4.55%,1.95%,0.00%,0.00%,0.00%,6.49%,0.00%,2.60%,0.65%,0.00%,0.00%,0.00%,0.00%,0.00%,0.00%,0.00%,0.00%,0.00%
NY,%,Fabius,42.79,-75.965,89,64.04%,25.84%,0.00%,3.37%,4.49%,1.12%,0.00%,0.00%,1.12%,0.00%,0.00%,0.00%,0.00%,0.00%,0.00%,0.00%,0.00%,0.00%,0.00%,0.00%,0.00%,0.00%,0.00%,0.00%,0.00%
NY,%,Lebanon,42.79,-75.62,106,55.66%,16.98%,4.72%,0.00%,16.04%,1.89%,1.89%,0.00%,0.00%,0.00%,0.00%,0.00%,0.94%,0.00%,0.94%,0.00%,0.00%,0.94%,0.00%,0.00%,0.00%,0.00%,0.00%,0.00%,0.00%
NY,%,Petersburg,42.7817,-73.3317,268,20.90%,28.73%,8.21%,1.87%,1.12%,2.61%,1.87%,3.36%,0.75%,0.00%,0.00%,0.00%,23.88%,1.12%,3.73%,0.75%,0.00%,0.00%,0.00%,0.00%,0.37%,0.00%,0.00%,0.00%,0.75%
NY,%,Scipio,42.78,-76.57,148,35.14%,29.73%,2.03%,4.73%,4.73%,7.43%,0.68%,0.00%,2.70%,0.00%,0.00%,0.00%,6.08%,0.00%,4.05%,1.35%,0.00%,0.00%,0.00%,0.00%,0.00%,0.68%,0.00%,0.00%,0.68%
NY,%,Georgetown,42.78,-75.75,125,60.80%,15.20%,7.20%,0.80%,12.80%,0.80%,0.00%,0.80%,0.00%,0.00%,0.00%,0.00%,0.00%,0.00%,0.80%,0.00%,0.00%,0.80%,0.00%,0.00%,0.00%,0.00%,0.00%,0.00%,0.00%
NY,%,Sempronius,42.77,-76.385,141,62.41%,14.89%,2.13%,0.71%,9.22%,1.42%,0.00%,0.71%,0.00%,0.00%,0.00%,0.00%,5.67%,1.42%,0.00%,1.42%,0.00%,0.00%,0.00%,0.00%,0.00%,0.00%,0.00%,0.00%,0.00%
NY,%,Roxborough,42.765,-73.478,575,28.17%,13.04%,9.22%,6.26%,19.13%,3.48%,0.70%,3.30%,0.87%,2.78%,0.00%,0.00%,10.78%,0.00%,1.22%,0.35%,0.00%,0.70%,0.00%,0.00%,0.00%,0.00%,0.00%,0.00%,0.00%
NY,%,Elizabethtown,42.765,-73.6267,1057,3.88%,9.18%,0.85%,1.23%,6.53%,0.28%,2.93%,19.02%,3.41%,0.19%,0.00%,0.00%,42.67%,4.73%,3.69%,0.47%,0.28%,0.38%,0.00%,0.00%,0.00%,0.09%,0.00%,0.00%,0.19%
NY,%,Belvidere & Crogan Grant ,42.73,-74.72,246,49.59%,18.29%,2.44%,0.41%,20.33%,2.85%,0.41%,0.00%,0.00%,0.00%,0.00%,0.00%,1.63%,0.00%,0.41%,0.00%,0.00%,0.81%,0.00%,0.00%,0.00%,0.00%,0.00%,0.00%,2.85%
NY,%,HLC-T9RI,42.73,-78.16,177,43.50%,31.07%,1.13%,7.34%,4.52%,4.52%,6.78%,0.00%,0.00%,0.00%,0.00%,0.00%,0.56%,0.00%,0.56%,0.00%,0.00%,0.00%,0.00%,0.00%,0.00%,0.00%,0.00%,0.00%,0.00%
NY,%,HLC-T9RIII,42.73,-78.33,173,32.37%,35.26%,4.05%,2.89%,8.09%,3.47%,9.25%,0.00%,1.16%,0.00%,0.00%,0.00%,0.00%,0.00%,1.16%,0.00%,0.00%,0.00%,0.00%,0.00%,0.00%,2.31%,0.00%,0.00%,0.00%
NY,%,HLC-T9RV,42.73,-78.54,310,38.06%,26.45%,1.29%,1.94%,14.52%,6.77%,6.77%,0.32%,0.65%,0.00%,0.00%,0.00%,0.00%,0.00%,0.65%,0.00%,0.00%,1.29%,0.00%,0.00%,0.32%,0.32%,0.00%,0.65%,0.00%
NY,%,Croghan proper,42.73,-74.97,164,54.88%,18.90%,3.66%,3.05%,8.54%,3.05%,1.22%,3.05%,0.00%,0.00%,0.00%,0.00%,0.61%,0.61%,1.83%,0.00%,0.00%,0.00%,0.00%,0.00%,0.61%,0.00%,0.00%,0.00%,0.00%
NY,%,HLC-T9RVII,42.72,-78.8,448,35.49%,14.06%,2.01%,8.26%,14.96%,4.24%,2.68%,1.12%,2.01%,0.00%,0.00%,0.00%,6.47%,2.90%,2.23%,0.22%,0.00%,0.67%,0.00%,0.00%,0.22%,0.00%,0.00%,1.34%,1.12%
NY,%,Helderbergh Farm Surveys,42.67,-73.98,283,3.53%,11.66%,1.41%,7.77%,14.13%,2.12%,2.83%,16.96%,3.53%,0.00%,0.00%,0.00%,19.79%,7.77%,7.07%,0.71%,0.00%,0.00%,0.00%,0.00%,0.00%,0.00%,0.00%,0.00%,0.71%
NY,%,BerlinNY,42.665,-73.3667,718,33.43%,25.77%,8.64%,4.87%,6.41%,5.85%,1.11%,0.00%,0.28%,6.27%,0.00%,0.00%,3.34%,0.00%,2.51%,0.28%,0.14%,0.84%,0.00%,0.00%,0.00%,0.14%,0.00%,0.00%,0.14%
NY,%,Middletown,42.6567,-73.5317,282,14.89%,8.51%,6.38%,1.77%,28.72%,1.42%,0.00%,5.32%,0.00%,14.54%,0.00%,0.00%,14.18%,2.48%,1.42%,0.35%,0.00%,0.00%,0.00%,0.00%,0.00%,0.00%,0.00%,0.00%,0.00%
NY,%,Greenbush  ,42.6567,-73.6733,807,1.24%,3.47%,1.61%,1.61%,3.47%,0.74%,2.60%,31.47%,5.08%,0.00%,0.00%,0.00%,41.51%,3.10%,2.23%,1.12%,0.00%,0.12%,0.00%,0.00%,0.00%,0.00%,0.00%,0.00%,0.62%
NY,%,Homer,42.65,-76.14,110,74.55%,15.45%,2.73%,0.00%,0.00%,0.91%,0.91%,0.00%,0.91%,0.00%,0.00%,0.00%,0.91%,0.00%,1.82%,0.91%,0.00%,0.00%,0.00%,0.00%,0.00%,0.00%,0.00%,0.00%,0.91%
NY,%,Hartwick,42.65,-75.01,57,54.39%,17.54%,8.77%,3.51%,5.26%,3.51%,1.75%,1.75%,0.00%,0.00%,0.00%,0.00%,0.00%,0.00%,1.75%,0.00%,0.00%,0.00%,0.00%,0.00%,0.00%,0.00%,0.00%,0.00%,1.75%
NY,%,West Croghan (Burlington),42.64,-75.15,133,51.13%,19.55%,3.01%,0.75%,11.28%,3.76%,4.51%,0.75%,0.00%,0.00%,0.00%,0.00%,0.00%,0.00%,5.26%,0.00%,0.00%,0.00%,0.00%,0.00%,0.00%,0.00%,0.00%,0.00%,0.00%
NY,%,Solon,42.63,-75.95,109,65.14%,13.76%,5.50%,0.00%,7.34%,2.75%,2.75%,0.00%,0.00%,0.00%,0.00%,0.00%,0.00%,0.00%,2.75%,0.00%,0.00%,0.00%,0.00%,0.00%,0.00%,0.00%,0.00%,0.00%,0.00%
NY,%,Locke,42.63,-76.37,114,60.53%,19.30%,0.00%,9.65%,1.75%,2.63%,0.88%,0.88%,0.88%,0.00%,0.00%,0.00%,0.88%,0.00%,2.63%,0.00%,0.00%,0.00%,0.00%,0.00%,0.00%,0.00%,0.00%,0.00%,0.00%
NY,%,Ovid,42.63,-76.79,151,19.21%,21.19%,0.66%,3.97%,4.64%,5.30%,0.66%,5.30%,2.65%,0.00%,0.00%,0.00%,29.80%,0.66%,3.31%,0.00%,0.00%,0.00%,0.00%,0.00%,0.00%,0.00%,0.66%,0.00%,1.99%
NY,%,Gardo Res-Morris- Meridian,42.63,-77.95,248,25.81%,12.10%,0.81%,6.05%,3.23%,4.84%,2.02%,4.44%,1.61%,0.00%,0.00%,0.00%,26.61%,7.26%,2.82%,0.81%,0.00%,0.00%,0.00%,0.00%,0.00%,0.00%,0.00%,0.40%,1.21%
NY,%,DeRuyters Town,42.6282,-75.8414,169,60.95%,26.63%,4.14%,0.59%,2.37%,2.37%,0.59%,0.00%,0.00%,0.00%,0.00%,0.00%,0.00%,0.00%,2.37%,0.00%,0.00%,0.00%,0.00%,0.00%,0.00%,0.00%,0.00%,0.00%,0.00%
NY,%,Lawyer Patent (w/Zimmer& Philipse),42.62,-74.26,232,19.40%,6.03%,2.59%,4.31%,14.66%,3.02%,0.43%,10.34%,2.16%,0.00%,0.00%,0.00%,32.33%,0.00%,1.29%,3.02%,0.00%,0.00%,0.00%,0.00%,0.00%,0.43%,0.00%,0.00%,0.00%
NY,%,T7 R3&4 P&G combi,42.62,-77.36,165,3.03%,7.88%,0.00%,0.61%,0.00%,0.61%,3.03%,7.88%,1.82%,0.00%,0.00%,0.00%,53.33%,16.36%,1.21%,4.24%,0.00%,0.00%,0.00%,0.00%,0.00%,0.00%,0.00%,0.00%,0.00%
NY,%,Ryckman-Hopewell,42.62,-76.96,109,5.50%,3.67%,0.00%,1.83%,0.92%,5.50%,4.59%,11.93%,13.76%,0.00%,0.00%,0.00%,43.12%,0.92%,3.67%,0.00%,0.00%,0.00%,0.00%,0.00%,0.00%,0.92%,2.75%,0.00%,0.92%
NY,%,"Hillington (Butler, Pittsfield, Butternuts)",42.62,-75.27,66,45.45%,18.18%,6.06%,0.00%,13.64%,0.00%,1.52%,3.03%,0.00%,1.52%,0.00%,0.00%,0.00%,1.52%,6.06%,0.00%,0.00%,0.00%,0.00%,0.00%,1.52%,1.52%,0.00%,0.00%,0.00%
NY,%,Byrne Patent combi ,42.62,-74.4,352,34.66%,15.34%,7.67%,2.27%,20.17%,2.27%,0.57%,1.70%,0.85%,0.00%,0.00%,0.00%,12.22%,0.00%,1.42%,0.85%,0.00%,0.00%,0.00%,0.00%,0.00%,0.00%,0.00%,0.00%,0.00%
NY,%,Schoharie,42.62,-74.31,96,31.25%,9.38%,5.21%,1.04%,35.42%,2.08%,0.00%,2.08%,0.00%,0.00%,0.00%,0.00%,10.42%,0.00%,1.04%,2.08%,0.00%,0.00%,0.00%,0.00%,0.00%,0.00%,0.00%,0.00%,0.00%
NY,%,ChenSE (T9-10-16-15),42.61,-75.47,51,60.78%,9.80%,11.76%,0.00%,5.88%,3.92%,3.92%,0.00%,0.00%,0.00%,0.00%,0.00%,0.00%,1.96%,1.96%,0.00%,0.00%,0.00%,0.00%,0.00%,0.00%,0.00%,0.00%,0.00%,0.00%
NY,%,Skinner vic,42.61,-74.63,136,49.26%,20.59%,2.21%,2.21%,12.50%,2.21%,1.47%,1.47%,0.00%,0.74%,1.47%,0.00%,0.74%,0.00%,2.21%,0.74%,0.00%,2.21%,0.00%,0.00%,0.00%,0.00%,0.00%,0.00%,0.00%
NY,%,Oahout Long,42.61,-74.91,103,45.63%,11.65%,7.77%,0.97%,19.42%,1.94%,1.94%,3.88%,0.00%,0.00%,0.00%,0.00%,1.94%,0.97%,2.91%,0.00%,0.00%,0.00%,0.00%,0.00%,0.97%,0.00%,0.00%,0.00%,0.00%
NY,%,MiltonNY,42.6,-76.52,140,20.71%,27.14%,0.71%,4.29%,0.71%,6.43%,1.43%,5.00%,6.43%,0.00%,0.00%,0.00%,19.29%,0.00%,5.00%,1.43%,0.00%,0.71%,0.00%,0.00%,0.71%,0.00%,0.00%,0.00%,0.00%
NY,%,Berne,42.5967,-74.155,184,45.11%,12.50%,2.17%,1.09%,29.89%,3.26%,0.54%,0.54%,0.54%,0.00%,0.00%,0.00%,3.26%,0.00%,0.00%,0.54%,0.00%,0.54%,0.00%,0.00%,0.00%,0.00%,0.00%,0.00%,0.00%
NY,%,HLC-T7RIX,42.59,-78.98,307,42.35%,8.47%,2.28%,2.28%,25.73%,3.91%,0.98%,2.28%,0.00%,0.00%,0.00%,0.00%,4.89%,0.98%,1.63%,1.95%,0.00%,0.00%,0.00%,0.00%,0.65%,0.98%,0.00%,0.65%,0.00%
NY,%,"ChenSW (T11-12-13-14, 7,8)",42.58,-75.68,76,57.89%,25.00%,5.26%,0.00%,2.63%,2.63%,0.00%,0.00%,0.00%,0.00%,0.00%,0.00%,0.00%,1.32%,5.26%,0.00%,0.00%,0.00%,0.00%,0.00%,0.00%,0.00%,0.00%,0.00%,0.00%
NY,%,HLC-T7RI,42.56,-78.16,160,29.38%,45.00%,4.38%,1.25%,3.13%,7.50%,5.63%,1.25%,0.00%,0.00%,0.00%,0.00%,0.63%,0.00%,0.63%,0.63%,0.00%,0.63%,0.00%,0.00%,0.00%,0.00%,0.00%,0.00%,0.00%
NY,%,HLC-T7RIII,42.56,-78.33,144,39.58%,43.75%,2.08%,3.47%,1.39%,3.47%,6.25%,0.00%,0.00%,0.00%,0.00%,0.00%,0.00%,0.00%,0.00%,0.00%,0.00%,0.00%,0.00%,0.00%,0.00%,0.00%,0.00%,0.00%,0.00%
NY,%,HLC-T7RV,42.56,-78.54,300,30.67%,37.00%,2.67%,1.33%,10.33%,7.00%,9.33%,0.33%,0.00%,0.00%,0.00%,0.00%,0.00%,0.00%,0.33%,0.00%,0.00%,0.67%,0.00%,0.00%,0.33%,0.00%,0.00%,0.00%,0.00%
NY,%,HLC-T7RVII,42.56,-78.76,313,51.44%,21.09%,2.24%,1.60%,15.65%,2.56%,4.47%,0.00%,0.00%,0.00%,0.00%,0.00%,0.00%,0.00%,0.00%,0.64%,0.00%,0.00%,0.00%,0.00%,0.00%,0.00%,0.00%,0.32%,0.00%
NY,%,Pult T6-7 RVI & T6RVII,42.56,-77.69,105,18.10%,9.52%,2.86%,2.86%,17.14%,2.86%,5.71%,7.62%,0.00%,0.00%,0.95%,0.00%,21.90%,5.71%,2.86%,0.00%,0.00%,0.95%,0.00%,0.00%,0.00%,0.95%,0.00%,0.00%,0.00%
NY,%,Stephenstown,42.555,-73.4183,308,31.49%,14.29%,10.06%,4.87%,13.64%,3.90%,0.65%,2.27%,1.30%,5.84%,0.00%,0.00%,4.55%,1.95%,2.27%,0.65%,0.97%,1.30%,0.00%,0.00%,0.00%,0.00%,0.00%,0.00%,0.00%
NY,%,T6 RI&IIP&G& T7R2,42.55,-77.14,251,18.73%,9.16%,0.00%,4.78%,0.80%,1.99%,1.59%,11.16%,6.77%,0.00%,0.80%,0.00%,33.86%,4.78%,1.99%,0.00%,0.00%,0.80%,0.00%,0.00%,0.00%,0.80%,0.40%,0.00%,1.59%
NY,%,Schodack,42.5433,-73.6917,886,0.56%,4.97%,0.45%,2.93%,0.45%,0.90%,3.95%,32.96%,5.08%,0.00%,0.00%,0.00%,44.92%,0.56%,1.02%,0.56%,0.00%,0.00%,0.00%,0.00%,0.34%,0.34%,0.00%,0.00%,0.00%
NY,%,Schohary --Butler & Brown Tract ,42.54,-74.45,51,43.14%,7.84%,1.96%,1.96%,25.49%,3.92%,0.00%,3.92%,0.00%,0.00%,0.00%,0.00%,7.84%,0.00%,1.96%,1.96%,0.00%,0.00%,0.00%,0.00%,0.00%,0.00%,0.00%,0.00%,0.00%
NY,%,Philiptown,42.535,-73.5567,912,10.64%,11.29%,4.17%,2.85%,13.38%,0.33%,1.21%,8.66%,1.43%,0.00%,0.00%,0.00%,39.80%,4.61%,0.88%,0.66%,0.00%,0.00%,0.00%,0.00%,0.00%,0.11%,0.00%,0.00%,0.00%
NY,%,Pult T6 R V ,42.53,-77.54,204,37.25%,5.39%,1.47%,9.31%,25.49%,0.00%,1.96%,3.43%,0.00%,0.00%,0.49%,0.98%,10.29%,1.47%,0.98%,0.49%,0.00%,0.00%,0.00%,0.00%,0.00%,0.00%,0.00%,0.00%,0.98%
NY,%,Strasborough Patent,42.51,-74.63,103.6666667,37.50%,16.35%,4.81%,0.96%,16.35%,3.85%,1.92%,0.00%,0.00%,1.92%,2.88%,0.00%,1.92%,0.00%,8.65%,0.00%,0.00%,1.92%,0.00%,0.00%,0.00%,0.00%,0.00%,0.00%,0.96%
NY,%,Otsego Patent,42.51,-75.1,244,42.21%,19.67%,8.20%,0.82%,7.38%,2.05%,0.82%,3.28%,0.82%,0.00%,0.00%,0.00%,4.92%,4.92%,2.46%,0.41%,0.00%,0.41%,0.00%,0.00%,1.23%,0.41%,0.00%,0.00%,0.00%
NY,%,Westerloo,42.5067,-74.045,293,47.44%,13.65%,2.73%,3.41%,27.30%,2.05%,0.00%,0.34%,0.68%,0.34%,0.00%,0.00%,0.68%,0.00%,1.02%,0.00%,0.00%,0.00%,0.00%,0.00%,0.00%,0.34%,0.00%,0.00%,0.00%
NY,%,Rensslaerville,42.4933,-74.2033,203,45.81%,9.85%,4.93%,4.43%,23.15%,0.49%,0.00%,1.48%,1.48%,0.00%,0.00%,0.00%,4.43%,0.00%,2.46%,0.99%,0.00%,0.49%,0.00%,0.00%,0.00%,0.00%,0.00%,0.00%,0.00%
NY,%,Cincinnatus #25,42.49,-75.97,27,74.07%,7.41%,3.70%,3.70%,3.70%,3.70%,3.70%,0.00%,0.00%,0.00%,0.00%,0.00%,0.00%,0.00%,0.00%,0.00%,0.00%,0.00%,0.00%,0.00%,0.00%,0.00%,0.00%,0.00%,0.00%
NY,%,Hector joint,42.49,-76.79,116,11.21%,7.76%,0.00%,0.86%,6.03%,0.86%,1.72%,18.97%,1.72%,0.00%,0.00%,0.00%,34.48%,8.62%,3.45%,1.72%,0.00%,0.00%,0.00%,0.00%,0.86%,1.72%,0.00%,0.00%,0.00%
NY,%,BristlNY (Scott/Morris Patent & Dies Manor ) ,42.48,-74.32,177,48.59%,9.60%,5.08%,0.00%,26.55%,0.56%,0.56%,4.52%,0.00%,1.13%,0.00%,0.00%,0.00%,0.00%,2.82%,0.00%,0.00%,0.00%,0.00%,0.00%,0.00%,0.00%,0.00%,0.00%,0.56%
NY,%,Dryden,42.48,-76.37,50,34.00%,8.00%,20.00%,0.00%,8.00%,0.00%,4.00%,4.00%,2.00%,0.00%,0.00%,0.00%,10.00%,6.00%,0.00%,2.00%,0.00%,2.00%,0.00%,0.00%,0.00%,0.00%,0.00%,0.00%,0.00%
NY,%,Charlotte River Patent,42.47,-74.89,265,32.45%,11.32%,12.45%,0.00%,20.38%,0.75%,5.28%,2.64%,0.00%,0.75%,1.13%,0.00%,3.02%,0.75%,3.77%,0.00%,0.00%,0.00%,0.00%,0.00%,3.02%,1.13%,0.00%,0.00%,1.13%
NY,%,Coymans Patent,42.46,-73.87,208,23.56%,10.10%,4.81%,9.62%,17.31%,0.00%,0.48%,12.50%,1.44%,0.00%,0.00%,0.00%,17.79%,1.92%,0.00%,0.48%,0.00%,0.00%,0.00%,0.00%,0.00%,0.00%,0.00%,0.00%,0.00%
NY,%,Ulysses,42.45,-76.56,89,20.22%,13.48%,1.12%,5.62%,1.12%,7.87%,4.49%,11.24%,6.74%,0.00%,0.00%,0.00%,14.61%,4.49%,1.12%,1.12%,0.00%,0.00%,0.00%,1.12%,1.12%,3.37%,1.12%,0.00%,0.00%
NY,%,Morris-Surplus-Sterrett,42.43,-77.93,234,57.69%,20.51%,0.85%,3.85%,1.71%,3.85%,0.43%,0.85%,0.00%,0.00%,0.00%,0.00%,3.42%,1.71%,2.14%,0.85%,0.00%,0.85%,0.00%,0.00%,0.43%,0.00%,0.00%,0.85%,0.00%
NY,%,DeBruyns Patent (Kinderhook),42.42,-73.72,369,0.00%,10.84%,0.54%,1.36%,0.00%,0.00%,2.98%,14.36%,10.57%,0.00%,0.00%,0.00%,47.43%,3.79%,2.98%,1.63%,0.27%,0.00%,0.00%,0.00%,0.54%,0.00%,0.00%,0.00%,2.71%
NY,%,Can'nNY,42.4117,-73.4634,84,9.52%,7.14%,3.57%,3.57%,5.95%,0.00%,1.19%,17.86%,5.95%,0.00%,0.00%,0.00%,25.00%,11.90%,0.00%,1.19%,0.00%,1.19%,0.00%,0.00%,0.00%,0.00%,0.00%,0.00%,5.95%
NY,%,Chatham,42.4106,-73.5864,99,1.01%,8.08%,2.02%,2.02%,1.01%,0.00%,4.04%,7.07%,10.10%,0.00%,0.00%,0.00%,49.49%,7.07%,0.00%,0.00%,0.00%,0.00%,0.00%,0.00%,2.02%,0.00%,1.01%,0.00%,5.05%
NY,%,Mass 10 Twps. N tier,42.41,-76.16,80,50.00%,17.50%,3.75%,0.00%,21.25%,2.50%,2.50%,0.00%,0.00%,0.00%,0.00%,0.00%,0.00%,0.00%,2.50%,0.00%,0.00%,0.00%,0.00%,0.00%,0.00%,0.00%,0.00%,0.00%,0.00%
NY,%,Chenan Tri #3,42.41,-75.69,36,47.22%,11.11%,2.78%,2.78%,8.33%,0.00%,0.00%,0.00%,0.00%,0.00%,0.00%,0.00%,16.67%,2.78%,5.56%,0.00%,0.00%,0.00%,0.00%,0.00%,0.00%,0.00%,0.00%,0.00%,2.78%
NY,%,Chenango #2 combi,42.4,-75.81,109,53.21%,11.01%,6.42%,1.83%,26.61%,0.00%,0.00%,0.92%,0.00%,0.00%,0.00%,0.00%,0.00%,0.00%,0.00%,0.00%,0.00%,0.00%,0.00%,0.00%,0.00%,0.00%,0.00%,0.00%,0.00%
NY,%,Pult T4&5 RIV,42.39,-77.39,316,24.37%,10.13%,5.38%,1.58%,25.95%,1.58%,1.27%,12.97%,0.63%,0.00%,0.00%,0.00%,8.86%,0.95%,4.11%,0.00%,0.00%,0.32%,0.00%,0.00%,1.27%,0.00%,0.00%,0.00%,0.63%
NY,%,Pult T4&5 RIII combi,42.39,-77.28,320,23.44%,5.00%,0.63%,4.06%,19.69%,1.25%,4.38%,12.50%,2.19%,0.00%,0.00%,0.00%,19.38%,1.88%,3.44%,0.00%,0.00%,0.00%,0.00%,0.00%,0.94%,0.00%,0.00%,0.00%,1.25%
NY,%,HLC-T5RI,42.38,-78.16,174,36.21%,21.26%,1.72%,2.87%,8.62%,2.87%,1.15%,8.62%,2.87%,0.00%,0.00%,0.00%,5.75%,2.87%,0.00%,0.00%,0.00%,0.00%,0.00%,0.00%,1.72%,1.15%,0.00%,2.30%,0.00%
NY,%,HLC-T5RIII,42.38,-78.33,147,29.25%,46.26%,0.68%,2.04%,2.72%,2.72%,6.12%,0.00%,0.00%,0.00%,0.00%,0.00%,0.00%,0.00%,8.16%,0.00%,0.00%,2.04%,0.00%,0.00%,0.00%,0.00%,0.00%,0.00%,0.00%
NY,%,HLC-T5RV,42.38,-78.54,295,43.73%,38.98%,2.71%,1.02%,5.42%,2.03%,2.37%,0.00%,0.00%,0.00%,0.68%,0.00%,0.00%,0.00%,0.68%,0.00%,0.00%,1.36%,0.00%,0.00%,1.02%,0.00%,0.00%,0.00%,0.00%
NY,%,HLC-T5RVII,42.38,-78.77,258,55.43%,21.32%,2.33%,0.78%,12.40%,4.65%,1.55%,0.39%,0.00%,0.00%,0.00%,0.00%,0.00%,0.00%,0.39%,0.00%,0.00%,0.39%,0.00%,0.00%,0.00%,0.00%,0.00%,0.39%,0.00%
NY,%,HLC-T5RIX,42.38,-79,238,34.03%,18.49%,3.78%,8.82%,18.91%,2.52%,2.94%,1.68%,0.42%,0.00%,0.42%,0.00%,1.26%,0.00%,2.10%,1.26%,0.00%,0.42%,0.00%,0.00%,1.68%,1.26%,0.00%,0.00%,0.00%
NY,%,HLC-T5RXI,42.38,-79.24,243,42.39%,16.46%,4.12%,7.00%,16.87%,4.12%,1.23%,0.41%,1.65%,0.00%,0.00%,0.00%,0.41%,0.00%,2.88%,0.41%,0.00%,0.00%,0.00%,0.41%,0.41%,0.41%,0.00%,0.82%,0.00%
NY,%,Pult T4&5 RV,42.38,-77.53,370,40.00%,7.57%,2.70%,4.86%,20.54%,2.16%,3.51%,8.38%,1.35%,0.00%,0.27%,0.00%,3.51%,0.54%,3.24%,0.27%,0.00%,0.54%,0.00%,0.00%,0.54%,0.00%,0.00%,0.00%,0.00%
NY,%,Pult T4-5 RVI,42.38,-77.67,169,57.99%,1.78%,0.59%,0.00%,18.34%,0.00%,0.00%,6.51%,0.59%,0.00%,0.00%,0.00%,12.43%,0.00%,1.78%,0.00%,0.00%,0.00%,0.00%,0.00%,0.00%,0.00%,0.00%,0.00%,0.00%
NY,%,Stamford ,42.3701,-74.6185,742,50.40%,25.34%,6.47%,0.00%,1.08%,2.70%,2.83%,0.67%,0.00%,0.00%,0.13%,0.00%,0.00%,0.00%,5.66%,0.13%,0.00%,2.70%,0.00%,0.00%,0.13%,0.13%,0.00%,0.00%,1.62%
NY,%,Banyar & Wallace Patent ,42.37,-75.24,121,26.45%,12.40%,7.44%,4.13%,12.40%,0.00%,0.00%,10.74%,0.00%,0.00%,0.00%,0.00%,17.36%,3.31%,3.31%,0.83%,0.00%,0.00%,0.00%,0.00%,0.00%,1.65%,0.00%,0.00%,0.00%
NY,%,StateLandsPatent  & adj ,42.37,-74.137,362,25.41%,14.92%,4.70%,1.93%,33.15%,1.93%,0.83%,2.49%,0.55%,0.83%,0.55%,0.00%,6.91%,0.83%,2.76%,0.55%,0.00%,0.00%,0.00%,0.00%,0.00%,0.28%,0.00%,0.00%,1.38%
NY,%,ChenangoTri #1,42.37,-75.93,60,45.00%,11.67%,1.67%,3.33%,15.00%,1.67%,5.00%,1.67%,0.00%,0.00%,0.00%,0.00%,1.67%,3.33%,1.67%,0.00%,0.00%,0.00%,0.00%,0.00%,3.33%,3.33%,0.00%,0.00%,1.67%
NY,%,GL #49 HardenbergP ,42.327,-74.403,63,30.16%,9.52%,7.94%,0.00%,47.62%,1.59%,0.00%,0.00%,0.00%,0.00%,0.00%,0.00%,1.59%,0.00%,0.00%,0.00%,0.00%,1.59%,0.00%,0.00%,0.00%,0.00%,0.00%,0.00%,0.00%
NY,%,Pult T3-5 RVII,42.32,-77.79,178,55.62%,13.48%,0.56%,5.62%,10.67%,3.37%,0.56%,1.12%,0.00%,0.00%,0.00%,0.00%,3.37%,0.00%,3.93%,0.00%,0.00%,0.56%,0.00%,0.00%,0.56%,0.56%,0.00%,0.00%,0.00%
NY,%,Chenan Tri #4,42.32,-75.84,52,40.38%,9.62%,3.85%,5.77%,5.77%,1.92%,9.62%,1.92%,3.85%,0.00%,0.00%,0.00%,5.77%,3.85%,1.92%,3.85%,0.00%,0.00%,0.00%,0.00%,0.00%,0.00%,0.00%,0.00%,1.92%
NY,%,GL #41 HardenbergP ,42.3008,-74.7091,129,62.02%,17.83%,7.75%,0.00%,1.55%,0.78%,0.78%,0.00%,0.00%,0.00%,0.00%,0.00%,0.00%,0.00%,6.20%,0.00%,0.00%,0.00%,0.00%,0.00%,0.00%,0.00%,0.00%,0.00%,3.10%
NY,%,HLC-T4RXIII,42.3,-79.46,235,48.51%,16.17%,3.40%,5.53%,12.34%,5.96%,2.55%,0.00%,1.28%,0.00%,0.00%,0.00%,0.85%,0.00%,1.28%,0.00%,0.00%,0.00%,0.00%,0.00%,0.43%,0.85%,0.00%,0.85%,0.00%
NY,%,Pult T3&4 RI&II,42.29,-77.09,80,13.75%,6.25%,2.50%,2.50%,17.50%,1.25%,0.00%,10.00%,0.00%,0.00%,0.00%,0.00%,32.50%,10.00%,2.50%,0.00%,0.00%,0.00%,0.00%,0.00%,1.25%,0.00%,0.00%,0.00%,0.00%
NY,%,GL #19 HardenbergP ,42.281,-74.521,84,61.90%,22.62%,5.95%,0.00%,2.38%,1.19%,1.19%,0.00%,0.00%,0.00%,0.00%,0.00%,0.00%,0.00%,2.38%,0.00%,0.00%,0.00%,0.00%,0.00%,0.00%,0.00%,0.00%,0.00%,2.38%
NY,%,Bedlington (Leake) H. White 1770Patent ,42.27,-74.98,108,73.15%,11.11%,5.56%,0.00%,5.56%,0.00%,0.00%,0.00%,0.00%,0.00%,0.00%,0.00%,0.00%,0.00%,3.70%,0.00%,0.00%,0.00%,0.00%,0.00%,0.93%,0.00%,0.00%,0.00%,0.00%
NY,%,Watkins & Flint,42.27,-76.82,124,20.16%,13.71%,4.84%,2.42%,2.42%,3.23%,0.81%,13.71%,0.00%,0.00%,0.00%,0.00%,30.65%,2.42%,3.23%,0.00%,0.00%,0.00%,0.00%,0.00%,0.00%,0.81%,0.00%,0.00%,1.61%
NY,%,GL #20 HardenbergP ,42.264,-74.452,76,60.53%,9.21%,5.26%,0.00%,18.42%,0.00%,0.00%,1.32%,0.00%,0.00%,0.00%,0.00%,2.63%,1.32%,1.32%,0.00%,0.00%,0.00%,0.00%,0.00%,0.00%,0.00%,0.00%,0.00%,0.00%
NY,%,Clinton Twp ,42.2582,-75.5247,138,27.54%,11.59%,13.77%,0.72%,4.35%,0.00%,0.00%,0.72%,0.00%,1.45%,0.00%,0.00%,5.80%,23.19%,10.87%,0.00%,0.00%,0.00%,0.00%,0.00%,0.00%,0.00%,0.00%,0.00%,0.00%
NY,%,GL #40 HardenbergP ,42.2575,-74.7221,128,60.94%,15.63%,5.47%,0.00%,4.69%,1.56%,1.56%,0.00%,0.00%,0.00%,0.00%,0.00%,1.56%,0.00%,7.81%,0.00%,0.00%,0.00%,0.00%,0.00%,0.00%,0.00%,0.00%,0.00%,0.78%
NY,%,Hillsdale,42.2502,-73.5265,115,2.61%,4.35%,1.74%,0.87%,2.61%,0.87%,0.00%,7.83%,8.70%,0.00%,0.00%,0.00%,45.22%,19.13%,0.00%,0.87%,0.00%,2.61%,0.00%,0.00%,0.87%,1.74%,0.00%,0.00%,0.00%
NY,%,Hudson&Claverack,42.2489,-73.73276,315,0.32%,6.98%,0.32%,0.00%,0.95%,0.95%,3.49%,5.08%,11.43%,0.00%,0.00%,0.63%,56.83%,5.08%,2.54%,0.95%,0.00%,0.32%,0.00%,0.00%,1.59%,0.63%,0.00%,0.00%,1.90%
NY,%,Provost (Livingston) Pat NY,42.24,-75.18,102,42.16%,35.29%,2.94%,0.00%,8.82%,0.98%,0.00%,0.00%,0.00%,0.00%,0.00%,0.00%,2.94%,5.88%,0.00%,0.00%,0.00%,0.00%,0.00%,0.00%,0.98%,0.00%,0.00%,0.00%,0.00%
NY,%,GL #22 HardenbergP ,42.238,-74.307,289,41.52%,15.22%,5.54%,0.69%,28.72%,1.38%,1.04%,1.04%,0.00%,0.00%,0.69%,0.00%,0.35%,0.00%,2.08%,0.00%,0.00%,0.35%,0.00%,0.00%,0.35%,0.69%,0.00%,0.00%,0.35%
NY,%,GL #23 HardenbergP ,42.222,-74.254,57,35.09%,12.28%,10.53%,0.00%,35.09%,0.00%,0.00%,0.00%,0.00%,5.26%,0.00%,0.00%,0.00%,0.00%,1.75%,0.00%,0.00%,0.00%,0.00%,0.00%,0.00%,0.00%,0.00%,0.00%,0.00%
NY,%,HLC-T3RI,42.22,-78.16,179,42.46%,25.70%,2.23%,1.12%,5.03%,3.35%,0.56%,1.68%,0.00%,0.00%,0.00%,0.00%,8.38%,3.91%,5.03%,0.00%,0.00%,0.00%,0.00%,0.00%,0.00%,0.00%,0.00%,0.56%,0.00%
NY,%,HLC-T3RIII,42.22,-78.33,162,36.42%,36.42%,1.23%,3.70%,3.70%,4.94%,2.47%,2.47%,0.62%,0.00%,0.00%,0.00%,1.85%,0.62%,2.47%,0.00%,0.00%,0.62%,0.00%,0.00%,0.00%,0.00%,0.00%,1.85%,0.62%
NY,%,HLC-T3RV,42.22,-78.54,325,47.38%,32.62%,1.54%,0.92%,2.15%,2.77%,1.23%,1.85%,0.00%,0.00%,0.00%,0.00%,2.15%,2.15%,3.08%,0.00%,0.00%,0.62%,0.00%,0.00%,0.00%,0.00%,0.00%,0.92%,0.62%
NY,%,HLC-T3RVII,42.22,-78.77,250,43.60%,24.40%,2.40%,0.80%,2.80%,3.20%,1.60%,4.40%,0.80%,0.80%,0.00%,0.00%,6.40%,5.20%,1.20%,0.00%,0.00%,0.80%,0.00%,0.00%,0.00%,0.00%,0.00%,1.60%,0.00%
NY,%,HLC-T3RIX,42.22,-79,229,48.47%,17.90%,2.62%,7.42%,9.61%,3.49%,3.06%,2.62%,0.44%,0.00%,0.00%,0.00%,0.00%,0.00%,1.31%,0.44%,0.00%,0.87%,0.00%,0.00%,0.00%,0.00%,0.00%,1.75%,0.00%
NY,%,HLC-T3RXI,42.22,-79.24,228,42.11%,25.00%,1.32%,4.82%,10.53%,2.63%,1.32%,1.75%,0.44%,0.00%,0.88%,0.00%,3.95%,0.88%,0.44%,0.00%,0.00%,0.88%,0.00%,0.00%,0.00%,0.00%,0.00%,3.07%,0.00%
NY,%,HLC-T3RXV,42.22,-79.67,164,53.66%,16.46%,5.49%,6.71%,4.27%,2.44%,0.61%,0.00%,1.22%,0.00%,0.00%,0.00%,0.00%,3.66%,1.22%,0.61%,0.00%,0.61%,0.00%,0.00%,1.22%,0.61%,0.00%,1.22%,0.00%
NY,%,Katskill Patent,42.212333,-73.93583,268,5.22%,9.33%,0.75%,3.36%,2.61%,0.00%,5.60%,9.33%,10.07%,0.37%,0.00%,0.00%,42.91%,4.10%,1.12%,0.75%,0.00%,1.12%,0.00%,0.00%,0.75%,1.49%,0.00%,0.00%,1.12%
NY,%,GL #39 HardenbergP ,42.211,-74.791,150,62.67%,18.67%,5.33%,0.00%,8.00%,0.67%,1.33%,0.00%,0.00%,0.00%,0.00%,0.00%,0.00%,0.00%,1.33%,0.00%,0.00%,1.33%,0.00%,0.00%,0.00%,0.00%,0.00%,0.00%,0.67%
NY,%,GL #24 HardenbergP ,42.202,-74.185,93,49.46%,10.75%,5.38%,0.00%,21.51%,1.08%,2.15%,0.00%,0.00%,0.00%,5.38%,0.00%,0.00%,0.00%,0.00%,0.00%,0.00%,1.08%,0.00%,0.00%,0.00%,0.00%,0.00%,0.00%,3.23%
NY,%,Pult T2&3 RIV,42.19,-77.4,287,24.74%,12.54%,4.53%,1.05%,26.13%,1.74%,1.05%,13.94%,1.05%,0.00%,0.00%,0.00%,8.36%,0.70%,3.14%,0.00%,0.00%,0.00%,0.00%,0.00%,0.70%,0.00%,0.00%,0.00%,0.35%
NY,%,Bradstreet & Evans ,42.1847,-75.363,282,54.96%,12.77%,3.90%,1.42%,9.22%,0.00%,0.00%,3.55%,0.00%,0.00%,0.00%,0.00%,0.71%,2.84%,2.84%,0.35%,0.00%,2.84%,0.00%,0.00%,0.71%,1.42%,0.00%,0.00%,2.48%
NY,%,GL #25 HardenbergP ,42.18,-74.126,160,46.25%,11.25%,4.38%,0.00%,35.63%,0.00%,0.00%,0.00%,0.00%,0.00%,0.63%,0.00%,0.63%,0.63%,0.00%,0.00%,0.00%,0.63%,0.00%,0.00%,0.00%,0.00%,0.00%,0.00%,0.00%
NY,%,Livingston GL#8,42.148,-74.524,94,32.98%,15.96%,11.70%,0.00%,36.17%,3.19%,0.00%,0.00%,0.00%,0.00%,0.00%,0.00%,0.00%,0.00%,0.00%,0.00%,0.00%,0.00%,0.00%,0.00%,0.00%,0.00%,0.00%,0.00%,0.00%
NY,%,Living'ColNY,42.135,-73.7482,62,1.61%,9.68%,3.23%,4.84%,3.23%,1.61%,1.61%,8.06%,6.45%,0.00%,0.00%,0.00%,48.39%,6.45%,0.00%,0.00%,0.00%,1.61%,0.00%,0.00%,0.00%,3.23%,0.00%,0.00%,0.00%
NY,%,Pult T1&2 R1&II,42.11,-77.1,106,12.26%,8.49%,4.72%,1.89%,16.04%,0.00%,2.83%,21.70%,0.00%,0.00%,0.00%,0.00%,24.53%,3.77%,2.83%,0.00%,0.00%,0.00%,0.00%,0.00%,0.94%,0.00%,0.00%,0.00%,0.00%
NY,%,GL #7 & 9 Hard pat,42.1,-74.594,188,56.38%,4.79%,10.11%,0.00%,16.49%,0.53%,0.00%,4.79%,0.00%,0.00%,0.53%,0.00%,1.06%,3.72%,0.00%,0.00%,0.00%,0.00%,0.00%,0.00%,0.00%,0.00%,0.00%,0.00%,1.60%
NY,%,Pult T1&2RV combi,42.1,-77.54,271,53.87%,8.86%,4.06%,0.74%,27.31%,1.48%,0.37%,0.74%,0.00%,0.00%,0.00%,0.00%,0.74%,0.00%,1.85%,0.00%,0.00%,0.00%,0.00%,0.00%,0.00%,0.00%,0.00%,0.00%,0.00%
NY,%,GL #36 HardenbergP ,42.093,-75.092,100,47.00%,11.00%,7.00%,0.00%,19.00%,0.00%,2.00%,0.00%,0.00%,0.00%,0.00%,0.00%,1.00%,0.00%,0.00%,0.00%,0.00%,2.00%,0.00%,0.00%,3.00%,5.00%,0.00%,0.00%,3.00%
NY,%,HLC-T2RXIII,42.09,-79.46,288,37.50%,23.61%,4.51%,2.43%,7.99%,2.08%,0.69%,4.17%,0.00%,0.00%,0.00%,0.00%,7.64%,2.78%,0.35%,0.35%,0.00%,2.08%,0.00%,0.00%,1.39%,0.00%,0.00%,2.08%,0.35%
NY,%,HLC-T1RXV,42.09,-79.67,177,55.37%,21.47%,1.13%,4.52%,9.60%,2.26%,1.13%,1.69%,0.00%,0.00%,0.00%,0.00%,0.00%,0.00%,0.56%,0.00%,0.00%,1.13%,0.00%,0.00%,0.00%,0.00%,0.00%,1.13%,0.00%
NY,%,Morris-Sterett S,42.09,-77.96,139,41.01%,19.42%,0.00%,4.32%,11.51%,1.44%,2.88%,8.63%,0.72%,0.00%,0.00%,0.00%,4.32%,2.16%,1.44%,0.00%,0.00%,0.00%,0.00%,0.00%,0.72%,0.00%,0.00%,1.44%,0.00%
NY,%,Chemung,42.08,-76.78,297,1.68%,13.47%,0.34%,4.71%,5.39%,0.67%,8.08%,16.84%,3.37%,0.00%,0.00%,0.00%,25.93%,2.69%,2.02%,0.34%,0.00%,0.00%,0.00%,0.00%,3.37%,8.75%,0.00%,0.00%,2.36%
NY,%,HLC-T1RI,42.06,-78.16,134,35.82%,24.63%,9.70%,2.24%,6.72%,0.75%,0.00%,9.70%,0.75%,0.00%,0.00%,0.00%,5.22%,1.49%,2.99%,0.00%,0.00%,0.00%,0.00%,0.00%,0.00%,0.00%,0.00%,0.00%,0.00%
NY,%,HLC-T3RIII,42.06,-78.33,132,29.55%,17.42%,3.79%,7.58%,23.48%,0.76%,3.03%,6.82%,1.52%,0.00%,0.00%,0.00%,0.76%,3.03%,2.27%,0.00%,0.00%,0.00%,0.00%,0.00%,0.00%,0.00%,0.00%,0.00%,0.00%
NY,%,HLC-T1RV,42.06,-78.54,299,34.45%,14.38%,5.35%,2.34%,18.73%,0.67%,0.67%,11.37%,0.67%,0.00%,0.00%,0.00%,6.35%,2.68%,0.67%,0.00%,0.00%,0.00%,0.00%,0.00%,0.33%,0.33%,0.00%,0.67%,0.33%
NY,%,HLC-T1RVII,42.06,-78.77,235,30.21%,18.72%,8.09%,2.55%,15.32%,0.85%,0.43%,6.38%,0.85%,0.00%,0.00%,0.00%,9.79%,5.53%,0.00%,0.85%,0.00%,0.00%,0.00%,0.00%,0.00%,0.00%,0.00%,0.43%,0.00%
NY,%,HLC-T1RIX,42.06,-79,218,24.77%,18.81%,4.59%,0.46%,14.22%,0.92%,0.00%,9.63%,1.38%,0.00%,0.00%,0.00%,8.26%,11.47%,1.83%,0.46%,0.00%,0.00%,0.00%,0.46%,0.00%,0.00%,0.00%,2.75%,0.00%
NY,%,HLC-T1RIX,42.06,-79.24,204,25.49%,26.96%,1.96%,7.35%,5.39%,3.43%,4.41%,6.37%,2.45%,0.00%,0.00%,0.00%,8.33%,2.94%,2.94%,0.00%,0.00%,0.98%,0.00%,0.00%,0.00%,0.00%,0.00%,0.98%,0.00%
NY,%,Owego PA line,42.05,-76.38,50,2.00%,10.00%,2.00%,6.00%,6.00%,0.00%,10.00%,18.00%,4.00%,0.00%,0.00%,0.00%,18.00%,2.00%,8.00%,0.00%,0.00%,0.00%,0.00%,0.00%,10.00%,4.00%,0.00%,0.00%,0.00%
NY,%,Pult T1 RIII&IV,42.04,-77.34,363,33.33%,10.19%,6.06%,5.51%,26.17%,1.65%,2.20%,4.68%,0.00%,0.00%,0.00%,0.00%,2.75%,0.55%,2.48%,0.00%,0.00%,2.75%,0.00%,0.00%,0.28%,1.38%,0.00%,0.00%,0.00%
NY,%,GL #5 HardenbergP ,41.99,-74.794,682,46.48%,15.25%,12.32%,0.59%,18.77%,1.32%,0.15%,0.15%,0.00%,0.44%,0.59%,0.00%,0.15%,0.73%,1.32%,0.00%,0.00%,0.88%,0.00%,0.00%,0.15%,0.00%,0.00%,0.00%,0.73%
NY,%,GL #6 HardenbergP ,41.9877,-74.6,140,55.00%,16.43%,9.29%,0.00%,4.29%,2.86%,0.00%,0.00%,0.00%,0.00%,0.00%,0.00%,0.00%,0.00%,9.29%,0.00%,0.00%,1.43%,0.00%,0.00%,0.00%,0.00%,0.00%,0.00%,1.43%
NY,%,Westfield GL#4 HardPat,41.9551,-74.9392,192,39.58%,14.06%,11.46%,0.00%,30.73%,0.00%,1.56%,0.00%,0.00%,0.00%,0.00%,0.00%,0.00%,0.00%,0.52%,0.00%,0.52%,0.52%,0.00%,0.00%,0.52%,0.52%,0.00%,0.00%,0.00%
NY,%,Little Nine partners,41.9517,-73.71,78,0.00%,6.41%,0.00%,3.85%,0.00%,2.56%,1.28%,10.26%,5.13%,0.00%,0.00%,0.00%,60.26%,5.13%,0.00%,2.56%,0.00%,0.00%,0.00%,1.28%,1.28%,0.00%,0.00%,0.00%,0.00%
NY,%,Beverkill GL#4 HardPat,41.9221,-74.8402,93,47.31%,12.90%,11.83%,0.00%,25.81%,0.00%,0.00%,0.00%,0.00%,1.08%,0.00%,0.00%,1.08%,0.00%,0.00%,0.00%,0.00%,0.00%,0.00%,0.00%,0.00%,0.00%,0.00%,0.00%,0.00%
NY,%,Hurley Patent,41.92,-74.08,229,3.49%,19.65%,4.37%,1.75%,15.28%,0.87%,0.44%,4.80%,4.80%,0.00%,0.00%,0.00%,29.26%,6.55%,4.80%,0.00%,0.00%,0.00%,0.00%,1.31%,0.00%,0.00%,0.00%,0.00%,2.62%
NY,%,Kingston Tracts ,41.91,-74,84,3.57%,7.14%,0.00%,4.76%,2.38%,2.38%,3.57%,14.29%,3.57%,0.00%,0.00%,0.00%,42.86%,3.57%,7.14%,1.19%,0.00%,0.00%,0.00%,0.00%,1.19%,0.00%,0.00%,0.00%,2.38%
NY,%,GL#4 HardPat,41.9022,-74.7608,210,46.19%,12.86%,10.48%,0.00%,27.62%,0.48%,0.00%,0.00%,0.00%,0.48%,0.00%,0.00%,0.00%,0.00%,0.95%,0.00%,0.48%,0.00%,0.00%,0.00%,0.00%,0.00%,0.00%,0.00%,0.48%
NY,%,Nine Partners,41.85,-73.7,182,0.00%,4.40%,0.00%,2.75%,2.20%,0.00%,6.04%,2.20%,10.44%,0.00%,0.00%,0.00%,64.84%,1.65%,0.00%,2.20%,0.00%,0.00%,0.00%,0.00%,0.00%,0.00%,0.00%,0.00%,3.30%
NY,%,GL #4 HardenbergP ,41.85,-74.61,378,47.62%,13.76%,7.94%,0.00%,25.40%,1.85%,0.00%,0.00%,0.00%,0.79%,0.00%,0.00%,0.00%,0.00%,1.32%,0.00%,0.00%,0.00%,0.00%,0.00%,0.26%,0.53%,0.00%,0.00%,0.53%
NY,%,GL #3 HardenbergP ,41.814,-74.69,430,47.67%,9.07%,1.63%,0.93%,36.28%,1.16%,0.00%,0.00%,0.00%,0.00%,0.00%,0.00%,0.23%,0.23%,0.47%,0.00%,0.00%,0.00%,0.00%,0.00%,0.00%,0.00%,0.00%,0.00%,2.33%
NY,%,GL #2 HardenbergP ,41.773,-74.773,240,47.92%,5.83%,5.83%,0.00%,35.42%,0.42%,0.42%,0.42%,0.00%,0.00%,0.00%,0.00%,0.42%,0.83%,0.83%,0.00%,0.00%,0.42%,0.00%,0.00%,0.00%,0.00%,0.00%,0.00%,1.25%
NY,%,new,41.75,-74.03,123,4.07%,7.32%,4.88%,0.81%,3.25%,0.00%,5.69%,4.07%,11.38%,0.00%,0.00%,0.00%,46.34%,7.32%,0.00%,0.00%,0.00%,0.00%,0.00%,2.44%,0.00%,0.00%,0.00%,0.00%,2.44%
NY,%,Rochester south west composite ,41.74,-74.43,123,22.76%,5.69%,8.13%,2.44%,35.77%,0.00%,0.00%,12.20%,0.00%,1.63%,0.00%,0.00%,7.32%,1.63%,0.81%,0.00%,0.00%,0.00%,0.00%,0.81%,0.00%,0.00%,0.81%,0.00%,0.00%
NY,%,Poughkeepsie lots ,41.71,-73.93,111,0.00%,5.41%,0.00%,5.41%,0.00%,0.00%,5.41%,0.00%,12.61%,0.00%,0.00%,0.00%,57.66%,5.41%,0.00%,0.90%,0.00%,0.00%,0.00%,0.00%,4.50%,0.00%,0.00%,0.00%,2.70%
NY,%,GL #1 HardenbergP ,41.696,-74.664,191,35.08%,13.61%,7.33%,0.52%,30.89%,0.52%,0.00%,3.14%,0.00%,1.05%,0.00%,0.00%,4.71%,0.52%,0.00%,1.05%,0.00%,0.00%,0.00%,0.00%,0.00%,0.00%,0.00%,0.00%,1.57%
NY,%,Beckman & Pawling,41.625,-73.665,111,0.00%,4.50%,1.80%,4.50%,0.00%,3.60%,3.60%,1.80%,20.72%,0.00%,0.00%,0.00%,46.85%,7.21%,3.60%,0.00%,0.00%,0.00%,0.00%,0.00%,0.00%,0.00%,1.80%,0.00%,0.00%
NY,%,Minisink Patent,41.49,-74.65,196,0.00%,4.08%,0.00%,4.08%,0.51%,0.51%,1.02%,17.86%,8.16%,0.00%,0.00%,0.00%,59.18%,2.55%,0.00%,1.53%,0.00%,0.00%,0.00%,0.00%,0.00%,0.00%,0.51%,0.00%,0.00%
NY,%,NE Wawayanda,41.49,-74.3,140,0.71%,7.86%,0.71%,5.71%,0.00%,0.71%,3.57%,2.86%,18.57%,0.00%,0.00%,0.00%,36.43%,9.29%,3.57%,0.00%,0.00%,1.43%,4.29%,0.00%,0.00%,0.71%,2.14%,0.00%,1.43%
NY,%,Philipse Patent #6,41.445,-73.672,209,3.83%,5.74%,0.48%,5.26%,0.96%,1.44%,2.39%,0.00%,13.88%,1.44%,0.00%,0.00%,52.15%,10.53%,0.96%,0.00%,0.00%,0.00%,0.00%,0.96%,0.00%,0.00%,0.00%,0.00%,0.00%
NY,%,Wawayanda Patent,41.35,-74.42,590,1.53%,4.24%,1.19%,3.05%,0.68%,1.02%,3.90%,0.34%,13.39%,0.00%,0.00%,0.00%,61.53%,5.93%,0.51%,1.53%,0.00%,0.00%,0.00%,0.17%,0.00%,0.00%,1.02%,0.00%,0.00%
NY,%,Cheescock Patent,41.25,-74.12,489,0.20%,0.20%,3.48%,1.43%,0.00%,0.20%,0.20%,0.00%,16.36%,0.00%,0.00%,0.00%,61.76%,13.70%,0.20%,0.20%,0.00%,0.00%,0.00%,0.20%,1.23%,0.20%,0.20%,0.00%,0.20%
NY,%,Bedford,41.2245,-73.6759,502,0.20%,1.79%,1.39%,1.79%,0.00%,0.20%,2.99%,0.00%,17.13%,0.00%,0.00%,0.00%,67.13%,6.18%,0.00%,1.00%,0.00%,0.00%,0.00%,0.00%,0.20%,0.00%,0.00%,0.00%,0.00%
NY,%,Mamaroneck&White Plains,41.02,-73.758,183,2.73%,6.56%,0.00%,9.29%,0.55%,0.55%,1.09%,0.00%,4.92%,0.00%,0.00%,0.00%,59.56%,9.29%,0.00%,0.00%,0.00%,0.55%,0.00%,0.00%,4.37%,0.00%,0.55%,0.00%,0.00%
NY,%,Eastchester,40.93,-73.79,104,0.00%,0.00%,0.96%,0.00%,0.00%,0.00%,0.00%,0.00%,11.54%,0.00%,0.00%,0.00%,77.88%,5.77%,0.00%,0.00%,0.00%,0.00%,0.00%,0.00%,0.96%,0.96%,0.96%,0.00%,0.96%